[
  {
    "": 0,
    "City": "Nasaud",
    "County": "Bistrita-Nasaud",
    "Latitude": 47.2921849,
    "Longitude": 24.3973258,
    "Sold": 1349829,
    "Group": "LARGE",
    "Agent": 15,
    "Visits": "twice-a-week"
  },
  {
    "": 1,
    "City": "Alba Iulia",
    "County": "Alba",
    "Latitude": 46.0732725,
    "Longitude": 23.5804886,
    "Sold": 1127631,
    "Group": "LARGE",
    "Agent": 0,
    "Visits": "weekly"
  },
  {
    "": 2,
    "City": "Zimnicea",
    "County": "Teleorman",
    "Latitude": 43.6578297,
    "Longitude": 25.360575,
    "Sold": 1120065,
    "Group": "LARGE",
    "Agent": 9,
    "Visits": "twice-a-week"
  },
  {
    "": 3,
    "City": "Panet",
    "County": "Mures",
    "Latitude": 46.5599133,
    "Longitude": 24.435195,
    "Sold": 8478,
    "Group": "SMALL",
    "Agent": 0,
    "Visits": "twice-a-week"
  },
  {
    "": 4,
    "City": "Caracal",
    "County": "Olt",
    "Latitude": 44.1157446,
    "Longitude": 24.3424754,
    "Sold": 787836,
    "Group": "MEDIUM",
    "Agent": 17,
    "Visits": "twice-a-week"
  },
  {
    "": 5,
    "City": "Voitinel",
    "County": "Suceava",
    "Latitude": 47.8804611,
    "Longitude": 25.7493649,
    "Sold": 430984,
    "Group": "MEDIUM",
    "Agent": 5,
    "Visits": "weekly"
  },
  {
    "": 6,
    "City": "Cheresig",
    "County": "Bihor",
    "Latitude": 47.0326903,
    "Longitude": 21.6750289,
    "Sold": 939962,
    "Group": "MEDIUM",
    "Agent": 11,
    "Visits": "bi-weekly"
  },
  {
    "": 7,
    "City": "Rogoz",
    "County": "Maramures",
    "Latitude": 47.4688357,
    "Longitude": 23.9322483,
    "Sold": 750924,
    "Group": "MEDIUM",
    "Agent": 12,
    "Visits": "bi-weekly"
  },
  {
    "": 8,
    "City": "Lunca de Jos",
    "County": "Harghita",
    "Latitude": 46.6445544,
    "Longitude": 25.9561808,
    "Sold": 1255089,
    "Group": "LARGE",
    "Agent": 6,
    "Visits": "weekly"
  },
  {
    "": 9,
    "City": "Tasnad",
    "County": "Satu Mare",
    "Latitude": 47.4783904,
    "Longitude": 22.5817433,
    "Sold": 958609,
    "Group": "MEDIUM",
    "Agent": 7,
    "Visits": "bi-weekly"
  },
  {
    "": 10,
    "City": "Valea Ursului",
    "County": "Iasi",
    "Latitude": 47.1351816,
    "Longitude": 27.4860171,
    "Sold": 1193163,
    "Group": "LARGE",
    "Agent": 19,
    "Visits": "bi-weekly"
  },
  {
    "": 11,
    "City": "Iasi",
    "County": "Iasi",
    "Latitude": 47.1584549,
    "Longitude": 27.6014418,
    "Sold": 566790,
    "Group": "MEDIUM",
    "Agent": 19,
    "Visits": "weekly"
  },
  {
    "": 12,
    "City": "Poiana Marului",
    "County": "Brasov",
    "Latitude": 45.6049511,
    "Longitude": 25.3075907,
    "Sold": 327776,
    "Group": "SMALL",
    "Agent": 1,
    "Visits": "bi-weekly"
  },
  {
    "": 13,
    "City": "Brazii de Jos",
    "County": "Prahova",
    "Latitude": 44.8507992,
    "Longitude": 26.0333732,
    "Sold": 594975,
    "Group": "MEDIUM",
    "Agent": 13,
    "Visits": "weekly"
  },
  {
    "": 14,
    "City": "Chitesti",
    "County": "Arges",
    "Latitude": 44.8599742,
    "Longitude": 25.137839,
    "Sold": 791489,
    "Group": "MEDIUM",
    "Agent": 10,
    "Visits": "twice-a-week"
  },
  {
    "": 15,
    "City": "Buzau",
    "County": "Buzau",
    "Latitude": 45.1371109,
    "Longitude": 26.8171122,
    "Sold": 989575,
    "Group": "MEDIUM",
    "Agent": 13,
    "Visits": "twice-a-week"
  },
  {
    "": 16,
    "City": "Targu Jiu",
    "County": "Gorj",
    "Latitude": 45.0314279,
    "Longitude": 23.2689393,
    "Sold": 1929654,
    "Group": "LARGE",
    "Agent": 18,
    "Visits": "bi-weekly"
  },
  {
    "": 17,
    "City": "Almasu",
    "County": "Salaj",
    "Latitude": 46.966232,
    "Longitude": 23.0986992,
    "Sold": 778871,
    "Group": "MEDIUM",
    "Agent": 7,
    "Visits": "weekly"
  },
  {
    "": 18,
    "City": "Paclisa",
    "County": "Hunedoara",
    "Latitude": 45.5630744,
    "Longitude": 22.8801602,
    "Sold": 322027,
    "Group": "SMALL",
    "Agent": 4,
    "Visits": "twice-a-week"
  },
  {
    "": 19,
    "City": "Brazii de Jos",
    "County": "Prahova",
    "Latitude": 44.8507992,
    "Longitude": 26.0333732,
    "Sold": 627009,
    "Group": "MEDIUM",
    "Agent": 13,
    "Visits": "weekly"
  },
  {
    "": 20,
    "City": "Poiana Ilvei",
    "County": "Bistrita-Nasaud",
    "Latitude": 47.3558143,
    "Longitude": 24.7451705,
    "Sold": 568202,
    "Group": "MEDIUM",
    "Agent": 15,
    "Visits": "weekly"
  },
  {
    "": 21,
    "City": "Buzau",
    "County": "Buzau",
    "Latitude": 45.1371109,
    "Longitude": 26.8171122,
    "Sold": 1040740,
    "Group": "LARGE",
    "Agent": 13,
    "Visits": "weekly"
  },
  {
    "": 22,
    "City": "Slatioara",
    "County": "Olt",
    "Latitude": 44.3992805,
    "Longitude": 24.3248738,
    "Sold": 29601,
    "Group": "SMALL",
    "Agent": 17,
    "Visits": "bi-weekly"
  },
  {
    "": 23,
    "City": "Fantanele",
    "County": "Mures",
    "Latitude": 46.421745,
    "Longitude": 24.7657281,
    "Sold": 831630,
    "Group": "MEDIUM",
    "Agent": 6,
    "Visits": "twice-a-week"
  },
  {
    "": 24,
    "City": "Praid",
    "County": "Harghita",
    "Latitude": 46.5553429,
    "Longitude": 25.1272723,
    "Sold": 878253,
    "Group": "MEDIUM",
    "Agent": 6,
    "Visits": "bi-weekly"
  },
  {
    "": 25,
    "City": "Polovragi",
    "County": "Gorj",
    "Latitude": 45.1779928,
    "Longitude": 23.7972575,
    "Sold": 916090,
    "Group": "MEDIUM",
    "Agent": 18,
    "Visits": "weekly"
  },
  {
    "": 26,
    "City": "Curtea de Arges",
    "County": "Arges",
    "Latitude": 45.1405966,
    "Longitude": 24.6685182,
    "Sold": 501341,
    "Group": "MEDIUM",
    "Agent": 10,
    "Visits": "twice-a-week"
  },
  {
    "": 27,
    "City": "Vulturu",
    "County": "Vrancea",
    "Latitude": 45.6179023,
    "Longitude": 27.4194359,
    "Sold": 681039,
    "Group": "MEDIUM",
    "Agent": 3,
    "Visits": "bi-weekly"
  },
  {
    "": 28,
    "City": "Rosiori de Vede",
    "County": "Teleorman",
    "Latitude": 44.1085569,
    "Longitude": 24.9949784,
    "Sold": 87969,
    "Group": "SMALL",
    "Agent": 9,
    "Visits": "twice-a-week"
  },
  {
    "": 29,
    "City": "Malini",
    "County": "Suceava",
    "Latitude": 47.4536485,
    "Longitude": 26.0872309,
    "Sold": 553340,
    "Group": "MEDIUM",
    "Agent": 5,
    "Visits": "bi-weekly"
  },
  {
    "": 30,
    "City": "Huedin",
    "County": "Cluj",
    "Latitude": 46.8623427,
    "Longitude": 23.0218215,
    "Sold": 528569,
    "Group": "MEDIUM",
    "Agent": 7,
    "Visits": "weekly"
  },
  {
    "": 31,
    "City": "Ramnicu Valcea",
    "County": "Valcea",
    "Latitude": 45.0996753,
    "Longitude": 24.3693179,
    "Sold": 1008025,
    "Group": "LARGE",
    "Agent": 10,
    "Visits": "twice-a-week"
  },
  {
    "": 32,
    "City": "Vadastrita",
    "County": "Olt",
    "Latitude": 43.8476733,
    "Longitude": 24.3422102,
    "Sold": 221908,
    "Group": "SMALL",
    "Agent": 17,
    "Visits": "weekly"
  },
  {
    "": 33,
    "City": "Moreni",
    "County": "Dambovita",
    "Latitude": 44.9820431,
    "Longitude": 25.6402111,
    "Sold": 1190599,
    "Group": "LARGE",
    "Agent": 1,
    "Visits": "weekly"
  },
  {
    "": 34,
    "City": "Rodna",
    "County": "Bistrita-Nasaud",
    "Latitude": 47.420026,
    "Longitude": 24.8169632,
    "Sold": 1547242,
    "Group": "LARGE",
    "Agent": 15,
    "Visits": "twice-a-week"
  },
  {
    "": 35,
    "City": "Malini",
    "County": "Suceava",
    "Latitude": 47.4536485,
    "Longitude": 26.0872309,
    "Sold": 234992,
    "Group": "SMALL",
    "Agent": 5,
    "Visits": "twice-a-week"
  },
  {
    "": 36,
    "City": "Brasov",
    "County": "Brasov",
    "Latitude": 45.6579755,
    "Longitude": 25.6011977,
    "Sold": 1013129,
    "Group": "LARGE",
    "Agent": 1,
    "Visits": "bi-weekly"
  },
  {
    "": 37,
    "City": "Simian",
    "County": "Mehedinti",
    "Latitude": 44.6323199,
    "Longitude": 22.7515121,
    "Sold": 1138454,
    "Group": "LARGE",
    "Agent": 16,
    "Visits": "bi-weekly"
  },
  {
    "": 38,
    "City": "Simian",
    "County": "Mehedinti",
    "Latitude": 44.6323199,
    "Longitude": 22.7515121,
    "Sold": 481281,
    "Group": "MEDIUM",
    "Agent": 16,
    "Visits": "weekly"
  },
  {
    "": 39,
    "City": "Busteni",
    "County": "Prahova",
    "Latitude": 45.4097148,
    "Longitude": 25.5342236,
    "Sold": 601364,
    "Group": "MEDIUM",
    "Agent": 1,
    "Visits": "bi-weekly"
  },
  {
    "": 40,
    "City": "Vulturu",
    "County": "Vrancea",
    "Latitude": 45.6179023,
    "Longitude": 27.4194359,
    "Sold": 733559,
    "Group": "MEDIUM",
    "Agent": 3,
    "Visits": "twice-a-week"
  },
  {
    "": 41,
    "City": "Teaca",
    "County": "Bistrita-Nasaud",
    "Latitude": 46.9114516,
    "Longitude": 24.5031976,
    "Sold": 651104,
    "Group": "MEDIUM",
    "Agent": 15,
    "Visits": "twice-a-week"
  },
  {
    "": 42,
    "City": "Voluntari",
    "County": "Ilfov",
    "Latitude": 44.5050832,
    "Longitude": 26.1555435,
    "Sold": 645493,
    "Group": "MEDIUM",
    "Agent": 13,
    "Visits": "twice-a-week"
  },
  {
    "": 43,
    "City": "Deva",
    "County": "Hunedoara",
    "Latitude": 45.8662574,
    "Longitude": 22.9143737,
    "Sold": 38001,
    "Group": "SMALL",
    "Agent": 4,
    "Visits": "weekly"
  },
  {
    "": 44,
    "City": "Comana de Jos",
    "County": "Brasov",
    "Latitude": 45.9135796,
    "Longitude": 25.2329858,
    "Sold": 1376165,
    "Group": "LARGE",
    "Agent": 6,
    "Visits": "bi-weekly"
  },
  {
    "": 45,
    "City": "Zalau",
    "County": "Salaj",
    "Latitude": 47.1854562,
    "Longitude": 23.0573324,
    "Sold": 1339809,
    "Group": "LARGE",
    "Agent": 7,
    "Visits": "bi-weekly"
  },
  {
    "": 46,
    "City": "Oniceni",
    "County": "Suceava",
    "Latitude": 47.3293628,
    "Longitude": 26.4591162,
    "Sold": 393317,
    "Group": "SMALL",
    "Agent": 5,
    "Visits": "bi-weekly"
  },
  {
    "": 47,
    "City": "Mosnita Noua",
    "County": "Timis",
    "Latitude": 45.7206388,
    "Longitude": 21.3156456,
    "Sold": 66787,
    "Group": "SMALL",
    "Agent": 2,
    "Visits": "bi-weekly"
  },
  {
    "": 48,
    "City": "Campia Turzii",
    "County": "Cluj",
    "Latitude": 46.5586485,
    "Longitude": 23.8706676,
    "Sold": 1060532,
    "Group": "LARGE",
    "Agent": 0,
    "Visits": "bi-weekly"
  },
  {
    "": 49,
    "City": "Vadu Izei",
    "County": "Maramures",
    "Latitude": 47.8833463,
    "Longitude": 23.9562547,
    "Sold": 512106,
    "Group": "MEDIUM",
    "Agent": 12,
    "Visits": "bi-weekly"
  },
  {
    "": 50,
    "City": "Targu Mures",
    "County": "Mures",
    "Latitude": 46.5385862,
    "Longitude": 24.5514392,
    "Sold": 870976,
    "Group": "MEDIUM",
    "Agent": 0,
    "Visits": "bi-weekly"
  },
  {
    "": 51,
    "City": "Sighisoara",
    "County": "Mures",
    "Latitude": 46.2197025,
    "Longitude": 24.7963878,
    "Sold": 640335,
    "Group": "MEDIUM",
    "Agent": 6,
    "Visits": "weekly"
  },
  {
    "": 52,
    "City": "Cotenesti",
    "County": "Arges",
    "Latitude": 45.23358,
    "Longitude": 25.1844379,
    "Sold": 1145769,
    "Group": "LARGE",
    "Agent": 10,
    "Visits": "bi-weekly"
  },
  {
    "": 53,
    "City": "Constanta",
    "County": "Constanta",
    "Latitude": 44.1598013,
    "Longitude": 28.6348138,
    "Sold": 1147374,
    "Group": "LARGE",
    "Agent": 14,
    "Visits": "bi-weekly"
  },
  {
    "": 54,
    "City": "Constanta",
    "County": "Constanta",
    "Latitude": 44.1598013,
    "Longitude": 28.6348138,
    "Sold": 437201,
    "Group": "MEDIUM",
    "Agent": 14,
    "Visits": "bi-weekly"
  },
  {
    "": 55,
    "City": "Daia Romana",
    "County": "Alba",
    "Latitude": 46.006639,
    "Longitude": 23.6675773,
    "Sold": 108318,
    "Group": "SMALL",
    "Agent": 0,
    "Visits": "weekly"
  },
  {
    "": 56,
    "City": "Orastie",
    "County": "Hunedoara",
    "Latitude": 45.8451246,
    "Longitude": 23.2019265,
    "Sold": 8530,
    "Group": "SMALL",
    "Agent": 4,
    "Visits": "bi-weekly"
  },
  {
    "": 57,
    "City": "Oniceni",
    "County": "Suceava",
    "Latitude": 47.3293628,
    "Longitude": 26.4591162,
    "Sold": 1105189,
    "Group": "LARGE",
    "Agent": 5,
    "Visits": "weekly"
  },
  {
    "": 58,
    "City": "Pipirig",
    "County": "Neamt",
    "Latitude": 47.2396133,
    "Longitude": 26.0678092,
    "Sold": 205570,
    "Group": "SMALL",
    "Agent": 5,
    "Visits": "weekly"
  },
  {
    "": 59,
    "City": "Ramnicu Valcea",
    "County": "Valcea",
    "Latitude": 45.0996753,
    "Longitude": 24.3693179,
    "Sold": 546591,
    "Group": "MEDIUM",
    "Agent": 10,
    "Visits": "weekly"
  },
  {
    "": 60,
    "City": "Sarata-Monteoru",
    "County": "Buzau",
    "Latitude": 45.1475653,
    "Longitude": 26.6409383,
    "Sold": 501842,
    "Group": "MEDIUM",
    "Agent": 13,
    "Visits": "twice-a-week"
  },
  {
    "": 61,
    "City": "Rupea",
    "County": "Brasov",
    "Latitude": 46.0377858,
    "Longitude": 25.2225074,
    "Sold": 773716,
    "Group": "MEDIUM",
    "Agent": 6,
    "Visits": "bi-weekly"
  },
  {
    "": 62,
    "City": "Comana de Jos",
    "County": "Brasov",
    "Latitude": 45.9135796,
    "Longitude": 25.2329858,
    "Sold": 168139,
    "Group": "SMALL",
    "Agent": 6,
    "Visits": "twice-a-week"
  },
  {
    "": 63,
    "City": "Floresti",
    "County": "Cluj",
    "Latitude": 46.7312657,
    "Longitude": 23.4783294,
    "Sold": 894389,
    "Group": "MEDIUM",
    "Agent": 0,
    "Visits": "bi-weekly"
  },
  {
    "": 64,
    "City": "Moinesti",
    "County": "Bacau",
    "Latitude": 46.4697857,
    "Longitude": 26.4884629,
    "Sold": 1061945,
    "Group": "LARGE",
    "Agent": 8,
    "Visits": "weekly"
  },
  {
    "": 65,
    "City": "Berbesti",
    "County": "Valcea",
    "Latitude": 45.0090342,
    "Longitude": 23.8797585,
    "Sold": 844211,
    "Group": "MEDIUM",
    "Agent": 18,
    "Visits": "weekly"
  },
  {
    "": 66,
    "City": "Saliste",
    "County": "Sibiu",
    "Latitude": 45.7941029,
    "Longitude": 23.8851034,
    "Sold": 644556,
    "Group": "MEDIUM",
    "Agent": 0,
    "Visits": "bi-weekly"
  },
  {
    "": 67,
    "City": "Intorsura Buzaului",
    "County": "Covasna",
    "Latitude": 45.6640966,
    "Longitude": 26.0149491,
    "Sold": 848700,
    "Group": "MEDIUM",
    "Agent": 1,
    "Visits": "bi-weekly"
  },
  {
    "": 68,
    "City": "Racsa",
    "County": "Satu Mare",
    "Latitude": 47.8207297,
    "Longitude": 23.3321834,
    "Sold": 999523,
    "Group": "MEDIUM",
    "Agent": 12,
    "Visits": "weekly"
  },
  {
    "": 69,
    "City": "Calarasi",
    "County": "Calarasi",
    "Latitude": 44.2085144,
    "Longitude": 27.3137439,
    "Sold": 586296,
    "Group": "MEDIUM",
    "Agent": 13,
    "Visits": "bi-weekly"
  },
  {
    "": 70,
    "City": "Golaiesti",
    "County": "Iasi",
    "Latitude": 47.2648157,
    "Longitude": 27.6787658,
    "Sold": 1777956,
    "Group": "LARGE",
    "Agent": 19,
    "Visits": "bi-weekly"
  },
  {
    "": 71,
    "City": "Tartasesti",
    "County": "Dambovita",
    "Latitude": 44.5713235,
    "Longitude": 25.8281028,
    "Sold": 995046,
    "Group": "MEDIUM",
    "Agent": 13,
    "Visits": "twice-a-week"
  },
  {
    "": 72,
    "City": "Dragodana",
    "County": "Dambovita",
    "Latitude": 44.7482909,
    "Longitude": 25.3936632,
    "Sold": 473795,
    "Group": "MEDIUM",
    "Agent": 10,
    "Visits": "weekly"
  },
  {
    "": 73,
    "City": "Moreni",
    "County": "Dambovita",
    "Latitude": 44.9820431,
    "Longitude": 25.6402111,
    "Sold": 604523,
    "Group": "MEDIUM",
    "Agent": 1,
    "Visits": "twice-a-week"
  },
  {
    "": 74,
    "City": "Daia Romana",
    "County": "Alba",
    "Latitude": 46.006639,
    "Longitude": 23.6675773,
    "Sold": 1046870,
    "Group": "LARGE",
    "Agent": 0,
    "Visits": "weekly"
  },
  {
    "": 75,
    "City": "Crevedia",
    "County": "Dambovita",
    "Latitude": 44.6019735,
    "Longitude": 25.9104359,
    "Sold": 741948,
    "Group": "MEDIUM",
    "Agent": 13,
    "Visits": "twice-a-week"
  },
  {
    "": 76,
    "City": "Urechesti",
    "County": "Arges",
    "Latitude": 45.2624404,
    "Longitude": 24.6151016,
    "Sold": 215342,
    "Group": "SMALL",
    "Agent": 10,
    "Visits": "bi-weekly"
  },
  {
    "": 77,
    "City": "Beius",
    "County": "Bihor",
    "Latitude": 46.6674534,
    "Longitude": 22.3575717,
    "Sold": 1832246,
    "Group": "LARGE",
    "Agent": 11,
    "Visits": "bi-weekly"
  },
  {
    "": 78,
    "City": "Catetu",
    "County": "Valcea",
    "Latitude": 44.8365671,
    "Longitude": 23.9550864,
    "Sold": 744729,
    "Group": "MEDIUM",
    "Agent": 18,
    "Visits": "weekly"
  },
  {
    "": 79,
    "City": "Trotusanu",
    "County": "Vrancea",
    "Latitude": 45.9790189,
    "Longitude": 27.0961172,
    "Sold": 1310086,
    "Group": "LARGE",
    "Agent": 3,
    "Visits": "weekly"
  },
  {
    "": 80,
    "City": "Alba Iulia",
    "County": "Alba",
    "Latitude": 46.0732725,
    "Longitude": 23.5804886,
    "Sold": 453975,
    "Group": "MEDIUM",
    "Agent": 0,
    "Visits": "weekly"
  },
  {
    "": 81,
    "City": "Voluntari",
    "County": "Ilfov",
    "Latitude": 44.5050832,
    "Longitude": 26.1555435,
    "Sold": 1568188,
    "Group": "LARGE",
    "Agent": 13,
    "Visits": "twice-a-week"
  },
  {
    "": 82,
    "City": "Murfatlar",
    "County": "Constanta",
    "Latitude": 44.1735518,
    "Longitude": 28.4105479,
    "Sold": 943171,
    "Group": "MEDIUM",
    "Agent": 14,
    "Visits": "weekly"
  },
  {
    "": 83,
    "City": "Ocna Sugatag",
    "County": "Maramures",
    "Latitude": 47.7373872,
    "Longitude": 23.8832678,
    "Sold": 1104421,
    "Group": "LARGE",
    "Agent": 12,
    "Visits": "bi-weekly"
  },
  {
    "": 84,
    "City": "Sant",
    "County": "Bistrita-Nasaud",
    "Latitude": 47.4406116,
    "Longitude": 24.891578,
    "Sold": 277373,
    "Group": "SMALL",
    "Agent": 15,
    "Visits": "weekly"
  },
  {
    "": 85,
    "City": "Prundeni",
    "County": "Valcea",
    "Latitude": 44.7372601,
    "Longitude": 24.2480032,
    "Sold": 1405572,
    "Group": "LARGE",
    "Agent": 17,
    "Visits": "bi-weekly"
  },
  {
    "": 86,
    "City": "Moldova Noua",
    "County": "Caras-Severin",
    "Latitude": 44.735184,
    "Longitude": 21.6642348,
    "Sold": 1144909,
    "Group": "LARGE",
    "Agent": 16,
    "Visits": "twice-a-week"
  },
  {
    "": 87,
    "City": "Teregova",
    "County": "Caras-Severin",
    "Latitude": 45.1504322,
    "Longitude": 22.2864464,
    "Sold": 1450923,
    "Group": "LARGE",
    "Agent": 16,
    "Visits": "bi-weekly"
  },
  {
    "": 88,
    "City": "Sascut",
    "County": "Bacau",
    "Latitude": 46.1960057,
    "Longitude": 27.093757,
    "Sold": 485956,
    "Group": "MEDIUM",
    "Agent": 8,
    "Visits": "bi-weekly"
  },
  {
    "": 89,
    "City": "Acris",
    "County": "Brasov",
    "Latitude": 45.6353308,
    "Longitude": 25.9928947,
    "Sold": 559486,
    "Group": "MEDIUM",
    "Agent": 1,
    "Visits": "twice-a-week"
  },
  {
    "": 90,
    "City": "Marghita",
    "County": "Bihor",
    "Latitude": 47.3479194,
    "Longitude": 22.3397566,
    "Sold": 1951958,
    "Group": "LARGE",
    "Agent": 7,
    "Visits": "bi-weekly"
  },
  {
    "": 91,
    "City": "Beclean",
    "County": "Bistrita-Nasaud",
    "Latitude": 47.1800681,
    "Longitude": 24.1704031,
    "Sold": 269992,
    "Group": "SMALL",
    "Agent": 15,
    "Visits": "twice-a-week"
  },
  {
    "": 92,
    "City": "Baia Mare",
    "County": "Maramures",
    "Latitude": 47.6567387,
    "Longitude": 23.5849881,
    "Sold": 732025,
    "Group": "MEDIUM",
    "Agent": 12,
    "Visits": "twice-a-week"
  },
  {
    "": 93,
    "City": "Avrig",
    "County": "Sibiu",
    "Latitude": 45.7288293,
    "Longitude": 24.3784376,
    "Sold": 1368445,
    "Group": "LARGE",
    "Agent": 0,
    "Visits": "twice-a-week"
  },
  {
    "": 94,
    "City": "Craiova",
    "County": "Dolj",
    "Latitude": 44.3301785,
    "Longitude": 23.7948807,
    "Sold": 848862,
    "Group": "MEDIUM",
    "Agent": 18,
    "Visits": "bi-weekly"
  },
  {
    "": 95,
    "City": "Bucuresti",
    "County": "Bucuresti",
    "Latitude": 44.4267674,
    "Longitude": 26.1025384,
    "Sold": 1091476,
    "Group": "LARGE",
    "Agent": 13,
    "Visits": "twice-a-week"
  },
  {
    "": 96,
    "City": "Ludus",
    "County": "Mures",
    "Latitude": 46.476045,
    "Longitude": 24.0933922,
    "Sold": 600275,
    "Group": "MEDIUM",
    "Agent": 0,
    "Visits": "weekly"
  },
  {
    "": 97,
    "City": "Campia Turzii",
    "County": "Cluj",
    "Latitude": 46.5586485,
    "Longitude": 23.8706676,
    "Sold": 985027,
    "Group": "MEDIUM",
    "Agent": 0,
    "Visits": "bi-weekly"
  },
  {
    "": 98,
    "City": "Filipestii de Targ",
    "County": "Prahova",
    "Latitude": 44.9686362,
    "Longitude": 25.7940462,
    "Sold": 146736,
    "Group": "SMALL",
    "Agent": 1,
    "Visits": "bi-weekly"
  },
  {
    "": 99,
    "City": "Huedin",
    "County": "Cluj",
    "Latitude": 46.8623427,
    "Longitude": 23.0218215,
    "Sold": 1629065,
    "Group": "LARGE",
    "Agent": 7,
    "Visits": "weekly"
  },
  {
    "": 100,
    "City": "Fieni",
    "County": "Dambovita",
    "Latitude": 45.1279095,
    "Longitude": 25.4152063,
    "Sold": 740917,
    "Group": "MEDIUM",
    "Agent": 10,
    "Visits": "weekly"
  },
  {
    "": 101,
    "City": "Husi",
    "County": "Vaslui",
    "Latitude": 46.6758644,
    "Longitude": 28.05899,
    "Sold": 459910,
    "Group": "MEDIUM",
    "Agent": 19,
    "Visits": "weekly"
  },
  {
    "": 102,
    "City": "Trip",
    "County": "Satu Mare",
    "Latitude": 47.9233727,
    "Longitude": 23.3767769,
    "Sold": 1133191,
    "Group": "LARGE",
    "Agent": 12,
    "Visits": "weekly"
  },
  {
    "": 103,
    "City": "Sangeorgiu de Padure",
    "County": "Mures",
    "Latitude": 46.4291872,
    "Longitude": 24.8386374,
    "Sold": 569640,
    "Group": "MEDIUM",
    "Agent": 6,
    "Visits": "twice-a-week"
  },
  {
    "": 104,
    "City": "Poiana Marului",
    "County": "Brasov",
    "Latitude": 45.6049511,
    "Longitude": 25.3075907,
    "Sold": 132870,
    "Group": "SMALL",
    "Agent": 1,
    "Visits": "bi-weekly"
  },
  {
    "": 105,
    "City": "Calaparu",
    "County": "Gorj",
    "Latitude": 44.6828706,
    "Longitude": 23.324964,
    "Sold": 126641,
    "Group": "SMALL",
    "Agent": 18,
    "Visits": "bi-weekly"
  },
  {
    "": 106,
    "City": "Cavnic",
    "County": "Maramures",
    "Latitude": 47.656596,
    "Longitude": 23.8297783,
    "Sold": 1146886,
    "Group": "LARGE",
    "Agent": 12,
    "Visits": "weekly"
  },
  {
    "": 107,
    "City": "Maneciu-Pamanteni",
    "County": "Prahova",
    "Latitude": 45.2907906,
    "Longitude": 26.0061295,
    "Sold": 720213,
    "Group": "MEDIUM",
    "Agent": 1,
    "Visits": "twice-a-week"
  },
  {
    "": 108,
    "City": "Rupea",
    "County": "Brasov",
    "Latitude": 46.0377858,
    "Longitude": 25.2225074,
    "Sold": 733149,
    "Group": "MEDIUM",
    "Agent": 6,
    "Visits": "twice-a-week"
  },
  {
    "": 109,
    "City": "Tautii-Magheraus",
    "County": "Maramures",
    "Latitude": 47.6656888,
    "Longitude": 23.4596529,
    "Sold": 1338871,
    "Group": "LARGE",
    "Agent": 12,
    "Visits": "weekly"
  },
  {
    "": 110,
    "City": "Simleu Silvaniei",
    "County": "Salaj",
    "Latitude": 47.2260727,
    "Longitude": 22.8037864,
    "Sold": 236587,
    "Group": "SMALL",
    "Agent": 7,
    "Visits": "weekly"
  },
  {
    "": 111,
    "City": "Aita Mare",
    "County": "Covasna",
    "Latitude": 45.9670572,
    "Longitude": 25.5635224,
    "Sold": 434661,
    "Group": "MEDIUM",
    "Agent": 6,
    "Visits": "weekly"
  },
  {
    "": 112,
    "City": "Vadu Izei",
    "County": "Maramures",
    "Latitude": 47.8833463,
    "Longitude": 23.9562547,
    "Sold": 607560,
    "Group": "MEDIUM",
    "Agent": 12,
    "Visits": "weekly"
  },
  {
    "": 113,
    "City": "Simeria",
    "County": "Hunedoara",
    "Latitude": 45.8555725,
    "Longitude": 23.0120864,
    "Sold": 847175,
    "Group": "MEDIUM",
    "Agent": 4,
    "Visits": "twice-a-week"
  },
  {
    "": 114,
    "City": "Matrici",
    "County": "Mures",
    "Latitude": 46.6521518,
    "Longitude": 24.8989782,
    "Sold": 778914,
    "Group": "MEDIUM",
    "Agent": 6,
    "Visits": "bi-weekly"
  },
  {
    "": 115,
    "City": "Tiha Bargaului",
    "County": "Bistrita-Nasaud",
    "Latitude": 47.2278833,
    "Longitude": 24.7759816,
    "Sold": 656556,
    "Group": "MEDIUM",
    "Agent": 15,
    "Visits": "twice-a-week"
  },
  {
    "": 116,
    "City": "Mineri",
    "County": "Tulcea",
    "Latitude": 45.1666405,
    "Longitude": 28.7113039,
    "Sold": 769186,
    "Group": "MEDIUM",
    "Agent": 14,
    "Visits": "bi-weekly"
  },
  {
    "": 117,
    "City": "Gherla",
    "County": "Cluj",
    "Latitude": 47.0317645,
    "Longitude": 23.909253,
    "Sold": 746347,
    "Group": "MEDIUM",
    "Agent": 0,
    "Visits": "bi-weekly"
  },
  {
    "": 118,
    "City": "Maneciu-Pamanteni",
    "County": "Prahova",
    "Latitude": 45.2907906,
    "Longitude": 26.0061295,
    "Sold": 440197,
    "Group": "MEDIUM",
    "Agent": 1,
    "Visits": "bi-weekly"
  },
  {
    "": 119,
    "City": "Tiur",
    "County": "Alba",
    "Latitude": 46.1604567,
    "Longitude": 23.8638923,
    "Sold": 393503,
    "Group": "SMALL",
    "Agent": 0,
    "Visits": "twice-a-week"
  },
  {
    "": 120,
    "City": "Matca",
    "County": "Galati",
    "Latitude": 45.8599216,
    "Longitude": 27.5597746,
    "Sold": 937258,
    "Group": "MEDIUM",
    "Agent": 3,
    "Visits": "weekly"
  },
  {
    "": 121,
    "City": "Oltenita",
    "County": "Calarasi",
    "Latitude": 44.0854664,
    "Longitude": 26.637483,
    "Sold": 354542,
    "Group": "SMALL",
    "Agent": 13,
    "Visits": "weekly"
  },
  {
    "": 122,
    "City": "Tartasesti",
    "County": "Dambovita",
    "Latitude": 44.5713235,
    "Longitude": 25.8281028,
    "Sold": 221322,
    "Group": "SMALL",
    "Agent": 13,
    "Visits": "twice-a-week"
  },
  {
    "": 123,
    "City": "Sascut",
    "County": "Bacau",
    "Latitude": 46.1960057,
    "Longitude": 27.093757,
    "Sold": 643853,
    "Group": "MEDIUM",
    "Agent": 8,
    "Visits": "twice-a-week"
  },
  {
    "": 124,
    "City": "Teregova",
    "County": "Caras-Severin",
    "Latitude": 45.1504322,
    "Longitude": 22.2864464,
    "Sold": 721166,
    "Group": "MEDIUM",
    "Agent": 16,
    "Visits": "bi-weekly"
  },
  {
    "": 125,
    "City": "Rabagani",
    "County": "Bihor",
    "Latitude": 46.74629,
    "Longitude": 22.2452338,
    "Sold": 1928361,
    "Group": "LARGE",
    "Agent": 11,
    "Visits": "twice-a-week"
  },
  {
    "": 126,
    "City": "Campeni",
    "County": "Alba",
    "Latitude": 46.3628153,
    "Longitude": 23.0459729,
    "Sold": 447649,
    "Group": "MEDIUM",
    "Agent": 4,
    "Visits": "bi-weekly"
  },
  {
    "": 127,
    "City": "Mastacan (Borlesti)",
    "County": "Neamt",
    "Latitude": 46.7968134,
    "Longitude": 26.4954639,
    "Sold": 1271630,
    "Group": "LARGE",
    "Agent": 8,
    "Visits": "twice-a-week"
  },
  {
    "": 128,
    "City": "Petrosani",
    "County": "Hunedoara",
    "Latitude": 45.4088946,
    "Longitude": 23.3754021,
    "Sold": 1173594,
    "Group": "LARGE",
    "Agent": 4,
    "Visits": "weekly"
  },
  {
    "": 129,
    "City": "Seica Mare",
    "County": "Sibiu",
    "Latitude": 46.0239949,
    "Longitude": 24.1582482,
    "Sold": 205527,
    "Group": "SMALL",
    "Agent": 0,
    "Visits": "weekly"
  },
  {
    "": 130,
    "City": "Almasu",
    "County": "Salaj",
    "Latitude": 46.966232,
    "Longitude": 23.0986992,
    "Sold": 1186626,
    "Group": "LARGE",
    "Agent": 7,
    "Visits": "weekly"
  },
  {
    "": 131,
    "City": "Lupeni",
    "County": "Hunedoara",
    "Latitude": 45.3569989,
    "Longitude": 23.2132218,
    "Sold": 208059,
    "Group": "SMALL",
    "Agent": 4,
    "Visits": "twice-a-week"
  },
  {
    "": 132,
    "City": "Borca",
    "County": "Neamt",
    "Latitude": 47.1789433,
    "Longitude": 25.7794842,
    "Sold": 529586,
    "Group": "MEDIUM",
    "Agent": 5,
    "Visits": "bi-weekly"
  },
  {
    "": 133,
    "City": "Batrani",
    "County": "Prahova",
    "Latitude": 45.3377853,
    "Longitude": 26.1118275,
    "Sold": 1103159,
    "Group": "LARGE",
    "Agent": 1,
    "Visits": "weekly"
  },
  {
    "": 134,
    "City": "Simeria",
    "County": "Hunedoara",
    "Latitude": 45.8555725,
    "Longitude": 23.0120864,
    "Sold": 77945,
    "Group": "SMALL",
    "Agent": 4,
    "Visits": "bi-weekly"
  },
  {
    "": 135,
    "City": "Rozavlea",
    "County": "Maramures",
    "Latitude": 47.7466016,
    "Longitude": 24.2181216,
    "Sold": 1025467,
    "Group": "LARGE",
    "Agent": 15,
    "Visits": "weekly"
  },
  {
    "": 136,
    "City": "Racosul de Sus",
    "County": "Covasna",
    "Latitude": 46.0802755,
    "Longitude": 25.547364,
    "Sold": 457994,
    "Group": "MEDIUM",
    "Agent": 6,
    "Visits": "bi-weekly"
  },
  {
    "": 137,
    "City": "Oituz",
    "County": "Bacau",
    "Latitude": 46.1713004,
    "Longitude": 26.5404114,
    "Sold": 1629775,
    "Group": "LARGE",
    "Agent": 8,
    "Visits": "twice-a-week"
  },
  {
    "": 138,
    "City": "Filiasi",
    "County": "Dolj",
    "Latitude": 44.554523,
    "Longitude": 23.5200088,
    "Sold": 1334254,
    "Group": "LARGE",
    "Agent": 18,
    "Visits": "twice-a-week"
  },
  {
    "": 139,
    "City": "Priboieni",
    "County": "Arges",
    "Latitude": 44.8747392,
    "Longitude": 25.0801048,
    "Sold": 573307,
    "Group": "MEDIUM",
    "Agent": 10,
    "Visits": "bi-weekly"
  },
  {
    "": 140,
    "City": "Deva",
    "County": "Hunedoara",
    "Latitude": 45.8662574,
    "Longitude": 22.9143737,
    "Sold": 456081,
    "Group": "MEDIUM",
    "Agent": 4,
    "Visits": "twice-a-week"
  },
  {
    "": 141,
    "City": "Suplac",
    "County": "Mures",
    "Latitude": 46.3972736,
    "Longitude": 24.5189235,
    "Sold": 192961,
    "Group": "SMALL",
    "Agent": 0,
    "Visits": "bi-weekly"
  },
  {
    "": 142,
    "City": "Constanta",
    "County": "Constanta",
    "Latitude": 44.1598013,
    "Longitude": 28.6348138,
    "Sold": 579538,
    "Group": "MEDIUM",
    "Agent": 14,
    "Visits": "twice-a-week"
  },
  {
    "": 143,
    "City": "Sacele",
    "County": "Brasov",
    "Latitude": 45.6179752,
    "Longitude": 25.6942533,
    "Sold": 659822,
    "Group": "MEDIUM",
    "Agent": 1,
    "Visits": "twice-a-week"
  },
  {
    "": 144,
    "City": "Targu Frumos",
    "County": "Iasi",
    "Latitude": 47.2085397,
    "Longitude": 27.0083561,
    "Sold": 617653,
    "Group": "MEDIUM",
    "Agent": 8,
    "Visits": "bi-weekly"
  },
  {
    "": 145,
    "City": "Poiana Ilvei",
    "County": "Bistrita-Nasaud",
    "Latitude": 47.3558143,
    "Longitude": 24.7451705,
    "Sold": 878351,
    "Group": "MEDIUM",
    "Agent": 15,
    "Visits": "weekly"
  },
  {
    "": 146,
    "City": "Rupea",
    "County": "Brasov",
    "Latitude": 46.0377858,
    "Longitude": 25.2225074,
    "Sold": 1089260,
    "Group": "LARGE",
    "Agent": 6,
    "Visits": "weekly"
  },
  {
    "": 147,
    "City": "Viseu de Jos",
    "County": "Maramures",
    "Latitude": 47.7395133,
    "Longitude": 24.3428814,
    "Sold": 974827,
    "Group": "MEDIUM",
    "Agent": 15,
    "Visits": "weekly"
  },
  {
    "": 148,
    "City": "Tarnaveni",
    "County": "Mures",
    "Latitude": 46.3293137,
    "Longitude": 24.2935777,
    "Sold": 417928,
    "Group": "MEDIUM",
    "Agent": 0,
    "Visits": "bi-weekly"
  },
  {
    "": 149,
    "City": "Pitesti",
    "County": "Arges",
    "Latitude": 44.8564798,
    "Longitude": 24.8691824,
    "Sold": 81104,
    "Group": "SMALL",
    "Agent": 10,
    "Visits": "weekly"
  },
  {
    "": 150,
    "City": "Breaza",
    "County": "Prahova",
    "Latitude": 45.187222,
    "Longitude": 25.662222,
    "Sold": 1482265,
    "Group": "LARGE",
    "Agent": 1,
    "Visits": "twice-a-week"
  },
  {
    "": 151,
    "City": "Apata",
    "County": "Brasov",
    "Latitude": 45.9495023,
    "Longitude": 25.5306954,
    "Sold": 455275,
    "Group": "MEDIUM",
    "Agent": 6,
    "Visits": "weekly"
  },
  {
    "": 152,
    "City": "Satu Mare",
    "County": "Satu Mare",
    "Latitude": 47.8016702,
    "Longitude": 22.8575926,
    "Sold": 473853,
    "Group": "MEDIUM",
    "Agent": 7,
    "Visits": "twice-a-week"
  },
  {
    "": 153,
    "City": "Oituz",
    "County": "Bacau",
    "Latitude": 46.1713004,
    "Longitude": 26.5404114,
    "Sold": 539405,
    "Group": "MEDIUM",
    "Agent": 8,
    "Visits": "weekly"
  },
  {
    "": 154,
    "City": "Bretcu",
    "County": "Covasna",
    "Latitude": 46.0529902,
    "Longitude": 26.3571364,
    "Sold": 121534,
    "Group": "SMALL",
    "Agent": 8,
    "Visits": "weekly"
  },
  {
    "": 155,
    "City": "Fieni",
    "County": "Dambovita",
    "Latitude": 45.1279095,
    "Longitude": 25.4152063,
    "Sold": 561012,
    "Group": "MEDIUM",
    "Agent": 10,
    "Visits": "bi-weekly"
  },
  {
    "": 156,
    "City": "Rediu",
    "County": "Galati",
    "Latitude": 45.6473638,
    "Longitude": 27.9011408,
    "Sold": 560172,
    "Group": "MEDIUM",
    "Agent": 3,
    "Visits": "twice-a-week"
  },
  {
    "": 157,
    "City": "Salistea de Sus",
    "County": "Maramures",
    "Latitude": 47.6576229,
    "Longitude": 24.3524831,
    "Sold": 1110179,
    "Group": "LARGE",
    "Agent": 15,
    "Visits": "twice-a-week"
  },
  {
    "": 158,
    "City": "Horia",
    "County": "Neamt",
    "Latitude": 46.90631,
    "Longitude": 26.9200561,
    "Sold": 1149228,
    "Group": "LARGE",
    "Agent": 8,
    "Visits": "twice-a-week"
  },
  {
    "": 159,
    "City": "Tautii-Magheraus",
    "County": "Maramures",
    "Latitude": 47.6656888,
    "Longitude": 23.4596529,
    "Sold": 801885,
    "Group": "MEDIUM",
    "Agent": 12,
    "Visits": "weekly"
  },
  {
    "": 160,
    "City": "Stanesti",
    "County": "Arges",
    "Latitude": 45.2391935,
    "Longitude": 24.8262465,
    "Sold": 1265924,
    "Group": "LARGE",
    "Agent": 10,
    "Visits": "weekly"
  },
  {
    "": 161,
    "City": "Horezu",
    "County": "Valcea",
    "Latitude": 45.1495389,
    "Longitude": 23.9816333,
    "Sold": 969982,
    "Group": "MEDIUM",
    "Agent": 18,
    "Visits": "bi-weekly"
  },
  {
    "": 162,
    "City": "Varghis",
    "County": "Covasna",
    "Latitude": 46.1437575,
    "Longitude": 25.5215551,
    "Sold": 792158,
    "Group": "MEDIUM",
    "Agent": 6,
    "Visits": "bi-weekly"
  },
  {
    "": 163,
    "City": "Filipestii de Targ",
    "County": "Prahova",
    "Latitude": 44.9686362,
    "Longitude": 25.7940462,
    "Sold": 880464,
    "Group": "MEDIUM",
    "Agent": 1,
    "Visits": "bi-weekly"
  },
  {
    "": 164,
    "City": "Horezu",
    "County": "Valcea",
    "Latitude": 45.1495389,
    "Longitude": 23.9816333,
    "Sold": 704673,
    "Group": "MEDIUM",
    "Agent": 18,
    "Visits": "weekly"
  },
  {
    "": 165,
    "City": "Stroiesti",
    "County": "Suceava",
    "Latitude": 47.6155605,
    "Longitude": 26.1242892,
    "Sold": 602575,
    "Group": "MEDIUM",
    "Agent": 5,
    "Visits": "bi-weekly"
  },
  {
    "": 166,
    "City": "Sant",
    "County": "Bistrita-Nasaud",
    "Latitude": 47.4406116,
    "Longitude": 24.891578,
    "Sold": 666133,
    "Group": "MEDIUM",
    "Agent": 15,
    "Visits": "twice-a-week"
  },
  {
    "": 167,
    "City": "Caracal",
    "County": "Olt",
    "Latitude": 44.1157446,
    "Longitude": 24.3424754,
    "Sold": 235994,
    "Group": "SMALL",
    "Agent": 17,
    "Visits": "bi-weekly"
  },
  {
    "": 168,
    "City": "Turceni",
    "County": "Gorj",
    "Latitude": 44.674076,
    "Longitude": 23.374199,
    "Sold": 940220,
    "Group": "MEDIUM",
    "Agent": 18,
    "Visits": "weekly"
  },
  {
    "": 169,
    "City": "Mastacan (Borlesti)",
    "County": "Neamt",
    "Latitude": 46.7968134,
    "Longitude": 26.4954639,
    "Sold": 303438,
    "Group": "SMALL",
    "Agent": 8,
    "Visits": "bi-weekly"
  },
  {
    "": 170,
    "City": "Giulesti",
    "County": "Maramures",
    "Latitude": 47.8190608,
    "Longitude": 23.9274849,
    "Sold": 1220815,
    "Group": "LARGE",
    "Agent": 12,
    "Visits": "twice-a-week"
  },
  {
    "": 171,
    "City": "Racaciuni",
    "County": "Bacau",
    "Latitude": 46.3375805,
    "Longitude": 26.9933688,
    "Sold": 675270,
    "Group": "MEDIUM",
    "Agent": 8,
    "Visits": "twice-a-week"
  },
  {
    "": 172,
    "City": "Darmanesti",
    "County": "Suceava",
    "Latitude": 47.7382535,
    "Longitude": 26.1457427,
    "Sold": 824747,
    "Group": "MEDIUM",
    "Agent": 5,
    "Visits": "twice-a-week"
  },
  {
    "": 173,
    "City": "Drobeta-Turnu Severin",
    "County": "Mehedinti",
    "Latitude": 44.6369227,
    "Longitude": 22.6597342,
    "Sold": 1046918,
    "Group": "LARGE",
    "Agent": 16,
    "Visits": "weekly"
  },
  {
    "": 174,
    "City": "Batrani",
    "County": "Prahova",
    "Latitude": 45.3377853,
    "Longitude": 26.1118275,
    "Sold": 1121657,
    "Group": "LARGE",
    "Agent": 1,
    "Visits": "twice-a-week"
  },
  {
    "": 175,
    "City": "Gherla",
    "County": "Cluj",
    "Latitude": 47.0317645,
    "Longitude": 23.909253,
    "Sold": 14688,
    "Group": "SMALL",
    "Agent": 0,
    "Visits": "bi-weekly"
  },
  {
    "": 176,
    "City": "Valenii de Munte",
    "County": "Prahova",
    "Latitude": 45.1912847,
    "Longitude": 26.0440169,
    "Sold": 696548,
    "Group": "MEDIUM",
    "Agent": 1,
    "Visits": "bi-weekly"
  },
  {
    "": 177,
    "City": "Milostea",
    "County": "Valcea",
    "Latitude": 45.1266508,
    "Longitude": 23.8337262,
    "Sold": 1240089,
    "Group": "LARGE",
    "Agent": 18,
    "Visits": "twice-a-week"
  },
  {
    "": 178,
    "City": "Tarnaveni",
    "County": "Mures",
    "Latitude": 46.3293137,
    "Longitude": 24.2935777,
    "Sold": 49052,
    "Group": "SMALL",
    "Agent": 0,
    "Visits": "weekly"
  },
  {
    "": 179,
    "City": "Toplita",
    "County": "Harghita",
    "Latitude": 46.9260303,
    "Longitude": 25.3534041,
    "Sold": 993640,
    "Group": "MEDIUM",
    "Agent": 6,
    "Visits": "twice-a-week"
  },
  {
    "": 180,
    "City": "Periam",
    "County": "Timis",
    "Latitude": 46.0443663,
    "Longitude": 20.8723729,
    "Sold": 327782,
    "Group": "SMALL",
    "Agent": 2,
    "Visits": "bi-weekly"
  },
  {
    "": 181,
    "City": "Deta",
    "County": "Timis",
    "Latitude": 45.3977401,
    "Longitude": 21.2255847,
    "Sold": 288746,
    "Group": "SMALL",
    "Agent": 2,
    "Visits": "bi-weekly"
  },
  {
    "": 182,
    "City": "Alexandria",
    "County": "Teleorman",
    "Latitude": 43.9750572,
    "Longitude": 25.3282579,
    "Sold": 819315,
    "Group": "MEDIUM",
    "Agent": 9,
    "Visits": "twice-a-week"
  },
  {
    "": 183,
    "City": "Praid",
    "County": "Harghita",
    "Latitude": 46.5553429,
    "Longitude": 25.1272723,
    "Sold": 28357,
    "Group": "SMALL",
    "Agent": 6,
    "Visits": "weekly"
  },
  {
    "": 184,
    "City": "Gherla",
    "County": "Cluj",
    "Latitude": 47.0317645,
    "Longitude": 23.909253,
    "Sold": 307244,
    "Group": "SMALL",
    "Agent": 0,
    "Visits": "bi-weekly"
  },
  {
    "": 185,
    "City": "Cluj-Napoca",
    "County": "Cluj",
    "Latitude": 46.7712101,
    "Longitude": 23.6236353,
    "Sold": 64082,
    "Group": "SMALL",
    "Agent": 0,
    "Visits": "weekly"
  },
  {
    "": 186,
    "City": "Zimnicea",
    "County": "Teleorman",
    "Latitude": 43.6578297,
    "Longitude": 25.360575,
    "Sold": 1624067,
    "Group": "LARGE",
    "Agent": 9,
    "Visits": "twice-a-week"
  },
  {
    "": 187,
    "City": "Topoloveni",
    "County": "Arges",
    "Latitude": 44.8105516,
    "Longitude": 25.0770243,
    "Sold": 882113,
    "Group": "MEDIUM",
    "Agent": 10,
    "Visits": "bi-weekly"
  },
  {
    "": 188,
    "City": "Balauseri",
    "County": "Mures",
    "Latitude": 46.4078416,
    "Longitude": 24.6929815,
    "Sold": 1083645,
    "Group": "LARGE",
    "Agent": 6,
    "Visits": "bi-weekly"
  },
  {
    "": 189,
    "City": "Rozavlea",
    "County": "Maramures",
    "Latitude": 47.7466016,
    "Longitude": 24.2181216,
    "Sold": 688662,
    "Group": "MEDIUM",
    "Agent": 15,
    "Visits": "bi-weekly"
  },
  {
    "": 190,
    "City": "Tecuci",
    "County": "Galati",
    "Latitude": 45.8490923,
    "Longitude": 27.4241268,
    "Sold": 623284,
    "Group": "MEDIUM",
    "Agent": 3,
    "Visits": "bi-weekly"
  },
  {
    "": 191,
    "City": "Voitinel",
    "County": "Suceava",
    "Latitude": 47.8804611,
    "Longitude": 25.7493649,
    "Sold": 8237,
    "Group": "SMALL",
    "Agent": 5,
    "Visits": "bi-weekly"
  },
  {
    "": 192,
    "City": "Crevedia",
    "County": "Dambovita",
    "Latitude": 44.6019735,
    "Longitude": 25.9104359,
    "Sold": 654081,
    "Group": "MEDIUM",
    "Agent": 13,
    "Visits": "bi-weekly"
  },
  {
    "": 193,
    "City": "Doanca",
    "County": "Olt",
    "Latitude": 43.8465727,
    "Longitude": 24.6487677,
    "Sold": 419253,
    "Group": "MEDIUM",
    "Agent": 17,
    "Visits": "twice-a-week"
  },
  {
    "": 194,
    "City": "Brebu",
    "County": "Prahova",
    "Latitude": 45.183333,
    "Longitude": 25.766667,
    "Sold": 1228961,
    "Group": "LARGE",
    "Agent": 1,
    "Visits": "bi-weekly"
  },
  {
    "": 195,
    "City": "Sfantu Gheorghe",
    "County": "Covasna",
    "Latitude": 45.8609375,
    "Longitude": 25.7885796,
    "Sold": 1370550,
    "Group": "LARGE",
    "Agent": 1,
    "Visits": "bi-weekly"
  },
  {
    "": 196,
    "City": "Dragasani",
    "County": "Valcea",
    "Latitude": 44.6631799,
    "Longitude": 24.2608711,
    "Sold": 1533289,
    "Group": "LARGE",
    "Agent": 17,
    "Visits": "twice-a-week"
  },
  {
    "": 197,
    "City": "Tarnaveni",
    "County": "Mures",
    "Latitude": 46.3293137,
    "Longitude": 24.2935777,
    "Sold": 1226275,
    "Group": "LARGE",
    "Agent": 0,
    "Visits": "bi-weekly"
  },
  {
    "": 198,
    "City": "Periam",
    "County": "Timis",
    "Latitude": 46.0443663,
    "Longitude": 20.8723729,
    "Sold": 500673,
    "Group": "MEDIUM",
    "Agent": 2,
    "Visits": "bi-weekly"
  },
  {
    "": 199,
    "City": "Poienita",
    "County": "Arges",
    "Latitude": 45.1127612,
    "Longitude": 24.9234846,
    "Sold": 242051,
    "Group": "SMALL",
    "Agent": 10,
    "Visits": "twice-a-week"
  },
  {
    "": 200,
    "City": "Petrosani",
    "County": "Hunedoara",
    "Latitude": 45.4088946,
    "Longitude": 23.3754021,
    "Sold": 1183331,
    "Group": "LARGE",
    "Agent": 4,
    "Visits": "bi-weekly"
  },
  {
    "": 201,
    "City": "Roman",
    "County": "Neamt",
    "Latitude": 46.9333781,
    "Longitude": 26.9265451,
    "Sold": 978146,
    "Group": "MEDIUM",
    "Agent": 8,
    "Visits": "bi-weekly"
  },
  {
    "": 202,
    "City": "Petrila",
    "County": "Hunedoara",
    "Latitude": 45.4437689,
    "Longitude": 23.4093784,
    "Sold": 84269,
    "Group": "SMALL",
    "Agent": 4,
    "Visits": "twice-a-week"
  },
  {
    "": 203,
    "City": "Marghita",
    "County": "Bihor",
    "Latitude": 47.3479194,
    "Longitude": 22.3397566,
    "Sold": 977740,
    "Group": "MEDIUM",
    "Agent": 7,
    "Visits": "bi-weekly"
  },
  {
    "": 204,
    "City": "Golaiesti",
    "County": "Iasi",
    "Latitude": 47.2648157,
    "Longitude": 27.6787658,
    "Sold": 1207259,
    "Group": "LARGE",
    "Agent": 19,
    "Visits": "twice-a-week"
  },
  {
    "": 205,
    "City": "Ganesti",
    "County": "Mures",
    "Latitude": 46.3336531,
    "Longitude": 24.3588403,
    "Sold": 829462,
    "Group": "MEDIUM",
    "Agent": 0,
    "Visits": "bi-weekly"
  },
  {
    "": 206,
    "City": "Dobreni",
    "County": "Giurgiu",
    "Latitude": 44.253387,
    "Longitude": 26.2082339,
    "Sold": 707473,
    "Group": "MEDIUM",
    "Agent": 13,
    "Visits": "bi-weekly"
  },
  {
    "": 207,
    "City": "Cavnic",
    "County": "Maramures",
    "Latitude": 47.656596,
    "Longitude": 23.8297783,
    "Sold": 396175,
    "Group": "SMALL",
    "Agent": 12,
    "Visits": "twice-a-week"
  },
  {
    "": 208,
    "City": "Mangalia",
    "County": "Constanta",
    "Latitude": 43.8152436,
    "Longitude": 28.5741496,
    "Sold": 76732,
    "Group": "SMALL",
    "Agent": 14,
    "Visits": "weekly"
  },
  {
    "": 209,
    "City": "Pechea",
    "County": "Galati",
    "Latitude": 45.6473849,
    "Longitude": 27.7849169,
    "Sold": 1200148,
    "Group": "LARGE",
    "Agent": 3,
    "Visits": "twice-a-week"
  },
  {
    "": 210,
    "City": "Cluj-Napoca",
    "County": "Cluj",
    "Latitude": 46.7712101,
    "Longitude": 23.6236353,
    "Sold": 645442,
    "Group": "MEDIUM",
    "Agent": 0,
    "Visits": "weekly"
  },
  {
    "": 211,
    "City": "Bibesti",
    "County": "Gorj",
    "Latitude": 44.7815366,
    "Longitude": 23.4907078,
    "Sold": 683266,
    "Group": "MEDIUM",
    "Agent": 18,
    "Visits": "weekly"
  },
  {
    "": 212,
    "City": "Braila",
    "County": "Braila",
    "Latitude": 45.2652463,
    "Longitude": 27.9594714,
    "Sold": 1666360,
    "Group": "LARGE",
    "Agent": 3,
    "Visits": "bi-weekly"
  },
  {
    "": 213,
    "City": "Odorheiu Secuiesc",
    "County": "Harghita",
    "Latitude": 46.3049996,
    "Longitude": 25.2926479,
    "Sold": 1142250,
    "Group": "LARGE",
    "Agent": 6,
    "Visits": "twice-a-week"
  },
  {
    "": 214,
    "City": "Bascov",
    "County": "Arges",
    "Latitude": 44.8906952,
    "Longitude": 24.7853667,
    "Sold": 985412,
    "Group": "MEDIUM",
    "Agent": 10,
    "Visits": "weekly"
  },
  {
    "": 215,
    "City": "Onesti",
    "County": "Bacau",
    "Latitude": 46.2647012,
    "Longitude": 26.782587,
    "Sold": 871030,
    "Group": "MEDIUM",
    "Agent": 8,
    "Visits": "weekly"
  },
  {
    "": 216,
    "City": "Cajvana",
    "County": "Suceava",
    "Latitude": 47.7019688,
    "Longitude": 25.9641186,
    "Sold": 1559997,
    "Group": "LARGE",
    "Agent": 5,
    "Visits": "weekly"
  },
  {
    "": 217,
    "City": "Berveni",
    "County": "Satu Mare",
    "Latitude": 47.7546831,
    "Longitude": 22.4714395,
    "Sold": 1659794,
    "Group": "LARGE",
    "Agent": 7,
    "Visits": "weekly"
  },
  {
    "": 218,
    "City": "Intorsura Buzaului",
    "County": "Covasna",
    "Latitude": 45.6640966,
    "Longitude": 26.0149491,
    "Sold": 1264752,
    "Group": "LARGE",
    "Agent": 1,
    "Visits": "twice-a-week"
  },
  {
    "": 219,
    "City": "Valea lui Mihai",
    "County": "Bihor",
    "Latitude": 47.5226462,
    "Longitude": 22.1264628,
    "Sold": 1091112,
    "Group": "LARGE",
    "Agent": 11,
    "Visits": "bi-weekly"
  },
  {
    "": 220,
    "City": "Turda",
    "County": "Cluj",
    "Latitude": 46.564676,
    "Longitude": 23.7971063,
    "Sold": 247301,
    "Group": "SMALL",
    "Agent": 0,
    "Visits": "bi-weekly"
  },
  {
    "": 221,
    "City": "Huedin",
    "County": "Cluj",
    "Latitude": 46.8623427,
    "Longitude": 23.0218215,
    "Sold": 861860,
    "Group": "MEDIUM",
    "Agent": 7,
    "Visits": "weekly"
  },
  {
    "": 222,
    "City": "Voivozi (Popesti)",
    "County": "Bihor",
    "Latitude": 47.2194325,
    "Longitude": 22.3902124,
    "Sold": 734946,
    "Group": "MEDIUM",
    "Agent": 7,
    "Visits": "bi-weekly"
  },
  {
    "": 223,
    "City": "Simeria",
    "County": "Hunedoara",
    "Latitude": 45.8555725,
    "Longitude": 23.0120864,
    "Sold": 846976,
    "Group": "MEDIUM",
    "Agent": 4,
    "Visits": "weekly"
  },
  {
    "": 224,
    "City": "Deva",
    "County": "Hunedoara",
    "Latitude": 45.8662574,
    "Longitude": 22.9143737,
    "Sold": 1271523,
    "Group": "LARGE",
    "Agent": 4,
    "Visits": "bi-weekly"
  },
  {
    "": 225,
    "City": "Racosul de Sus",
    "County": "Covasna",
    "Latitude": 46.0802755,
    "Longitude": 25.547364,
    "Sold": 569838,
    "Group": "MEDIUM",
    "Agent": 6,
    "Visits": "bi-weekly"
  },
  {
    "": 226,
    "City": "Rancaciov",
    "County": "Dambovita",
    "Latitude": 44.8855684,
    "Longitude": 25.3627472,
    "Sold": 515343,
    "Group": "MEDIUM",
    "Agent": 10,
    "Visits": "twice-a-week"
  },
  {
    "": 227,
    "City": "Topa de Jos",
    "County": "Bihor",
    "Latitude": 46.8434194,
    "Longitude": 22.2332655,
    "Sold": 934952,
    "Group": "MEDIUM",
    "Agent": 11,
    "Visits": "weekly"
  },
  {
    "": 228,
    "City": "Caransebes",
    "County": "Caras-Severin",
    "Latitude": 45.413619,
    "Longitude": 22.2218641,
    "Sold": 566577,
    "Group": "MEDIUM",
    "Agent": 16,
    "Visits": "twice-a-week"
  },
  {
    "": 229,
    "City": "Suplac",
    "County": "Mures",
    "Latitude": 46.3972736,
    "Longitude": 24.5189235,
    "Sold": 91546,
    "Group": "SMALL",
    "Agent": 0,
    "Visits": "bi-weekly"
  },
  {
    "": 230,
    "City": "Satu Mare",
    "County": "Satu Mare",
    "Latitude": 47.8016702,
    "Longitude": 22.8575926,
    "Sold": 1234481,
    "Group": "LARGE",
    "Agent": 7,
    "Visits": "weekly"
  },
  {
    "": 231,
    "City": "Arad",
    "County": "Arad",
    "Latitude": 46.1865606,
    "Longitude": 21.3122677,
    "Sold": 938435,
    "Group": "MEDIUM",
    "Agent": 2,
    "Visits": "weekly"
  },
  {
    "": 232,
    "City": "Dobreni",
    "County": "Giurgiu",
    "Latitude": 44.253387,
    "Longitude": 26.2082339,
    "Sold": 314447,
    "Group": "SMALL",
    "Agent": 13,
    "Visits": "weekly"
  },
  {
    "": 233,
    "City": "Oituz",
    "County": "Bacau",
    "Latitude": 46.1713004,
    "Longitude": 26.5404114,
    "Sold": 957408,
    "Group": "MEDIUM",
    "Agent": 8,
    "Visits": "weekly"
  },
  {
    "": 234,
    "City": "Satu Nou (Ocland)",
    "County": "Harghita",
    "Latitude": 46.1454108,
    "Longitude": 25.4155428,
    "Sold": 1210792,
    "Group": "LARGE",
    "Agent": 6,
    "Visits": "weekly"
  },
  {
    "": 235,
    "City": "Corod",
    "County": "Galati",
    "Latitude": 45.8991197,
    "Longitude": 27.6257026,
    "Sold": 802646,
    "Group": "MEDIUM",
    "Agent": 3,
    "Visits": "weekly"
  },
  {
    "": 236,
    "City": "Mosnita Noua",
    "County": "Timis",
    "Latitude": 45.7206388,
    "Longitude": 21.3156456,
    "Sold": 1200282,
    "Group": "LARGE",
    "Agent": 2,
    "Visits": "bi-weekly"
  },
  {
    "": 237,
    "City": "Novaci",
    "County": "Gorj",
    "Latitude": 45.1782926,
    "Longitude": 23.6720859,
    "Sold": 839130,
    "Group": "MEDIUM",
    "Agent": 18,
    "Visits": "weekly"
  },
  {
    "": 238,
    "City": "Filiasi",
    "County": "Dolj",
    "Latitude": 44.554523,
    "Longitude": 23.5200088,
    "Sold": 602385,
    "Group": "MEDIUM",
    "Agent": 18,
    "Visits": "bi-weekly"
  },
  {
    "": 239,
    "City": "Poiana Ilvei",
    "County": "Bistrita-Nasaud",
    "Latitude": 47.3558143,
    "Longitude": 24.7451705,
    "Sold": 220289,
    "Group": "SMALL",
    "Agent": 15,
    "Visits": "twice-a-week"
  },
  {
    "": 240,
    "City": "Teregova",
    "County": "Caras-Severin",
    "Latitude": 45.1504322,
    "Longitude": 22.2864464,
    "Sold": 757034,
    "Group": "MEDIUM",
    "Agent": 16,
    "Visits": "bi-weekly"
  },
  {
    "": 241,
    "City": "Sovata",
    "County": "Mures",
    "Latitude": 46.5990794,
    "Longitude": 25.0774363,
    "Sold": 897146,
    "Group": "MEDIUM",
    "Agent": 6,
    "Visits": "twice-a-week"
  },
  {
    "": 242,
    "City": "Bascov",
    "County": "Arges",
    "Latitude": 44.8906952,
    "Longitude": 24.7853667,
    "Sold": 1237916,
    "Group": "LARGE",
    "Agent": 10,
    "Visits": "weekly"
  },
  {
    "": 243,
    "City": "Hunedoara",
    "County": "Hunedoara",
    "Latitude": 45.7678128,
    "Longitude": 22.9072331,
    "Sold": 742446,
    "Group": "MEDIUM",
    "Agent": 4,
    "Visits": "bi-weekly"
  },
  {
    "": 244,
    "City": "Sinaia",
    "County": "Prahova",
    "Latitude": 45.3310429,
    "Longitude": 25.5623504,
    "Sold": 1028707,
    "Group": "LARGE",
    "Agent": 1,
    "Visits": "bi-weekly"
  },
  {
    "": 245,
    "City": "Domnesti",
    "County": "Arges",
    "Latitude": 45.203321,
    "Longitude": 24.8386752,
    "Sold": 317693,
    "Group": "SMALL",
    "Agent": 10,
    "Visits": "bi-weekly"
  },
  {
    "": 246,
    "City": "Vulcan",
    "County": "Brasov",
    "Latitude": 45.6348088,
    "Longitude": 25.4181031,
    "Sold": 408685,
    "Group": "MEDIUM",
    "Agent": 1,
    "Visits": "twice-a-week"
  },
  {
    "": 247,
    "City": "Bumbesti-Jiu",
    "County": "Gorj",
    "Latitude": 45.1776245,
    "Longitude": 23.3856157,
    "Sold": 744805,
    "Group": "MEDIUM",
    "Agent": 18,
    "Visits": "weekly"
  },
  {
    "": 248,
    "City": "Falciu",
    "County": "Vaslui",
    "Latitude": 46.2930548,
    "Longitude": 28.1415999,
    "Sold": 272685,
    "Group": "SMALL",
    "Agent": 19,
    "Visits": "bi-weekly"
  },
  {
    "": 249,
    "City": "Seini",
    "County": "Maramures",
    "Latitude": 47.7475078,
    "Longitude": 23.2849196,
    "Sold": 1210123,
    "Group": "LARGE",
    "Agent": 12,
    "Visits": "twice-a-week"
  },
  {
    "": 250,
    "City": "Onesti",
    "County": "Bacau",
    "Latitude": 46.2647012,
    "Longitude": 26.782587,
    "Sold": 1031565,
    "Group": "LARGE",
    "Agent": 8,
    "Visits": "bi-weekly"
  },
  {
    "": 251,
    "City": "Brebu",
    "County": "Prahova",
    "Latitude": 45.183333,
    "Longitude": 25.766667,
    "Sold": 939547,
    "Group": "MEDIUM",
    "Agent": 1,
    "Visits": "bi-weekly"
  },
  {
    "": 252,
    "City": "Vulturu",
    "County": "Vrancea",
    "Latitude": 45.6179023,
    "Longitude": 27.4194359,
    "Sold": 969452,
    "Group": "MEDIUM",
    "Agent": 3,
    "Visits": "bi-weekly"
  },
  {
    "": 253,
    "City": "Satu Nou (Ocland)",
    "County": "Harghita",
    "Latitude": 46.1454108,
    "Longitude": 25.4155428,
    "Sold": 1810521,
    "Group": "LARGE",
    "Agent": 6,
    "Visits": "bi-weekly"
  },
  {
    "": 254,
    "City": "Pericei",
    "County": "Salaj",
    "Latitude": 47.2279331,
    "Longitude": 22.8684111,
    "Sold": 565567,
    "Group": "MEDIUM",
    "Agent": 7,
    "Visits": "twice-a-week"
  },
  {
    "": 255,
    "City": "Sona",
    "County": "Alba",
    "Latitude": 46.2172769,
    "Longitude": 24.0147622,
    "Sold": 300720,
    "Group": "SMALL",
    "Agent": 0,
    "Visits": "weekly"
  },
  {
    "": 256,
    "City": "Baia Mare",
    "County": "Maramures",
    "Latitude": 47.6567387,
    "Longitude": 23.5849881,
    "Sold": 899650,
    "Group": "MEDIUM",
    "Agent": 12,
    "Visits": "weekly"
  },
  {
    "": 257,
    "City": "Ieud",
    "County": "Maramures",
    "Latitude": 47.6632407,
    "Longitude": 24.2286926,
    "Sold": 774698,
    "Group": "MEDIUM",
    "Agent": 15,
    "Visits": "bi-weekly"
  },
  {
    "": 258,
    "City": "Victoria",
    "County": "Brasov",
    "Latitude": 45.7306587,
    "Longitude": 24.7009227,
    "Sold": 541240,
    "Group": "MEDIUM",
    "Agent": 6,
    "Visits": "twice-a-week"
  },
  {
    "": 259,
    "City": "Cotenesti",
    "County": "Arges",
    "Latitude": 45.23358,
    "Longitude": 25.1844379,
    "Sold": 310585,
    "Group": "SMALL",
    "Agent": 10,
    "Visits": "weekly"
  },
  {
    "": 260,
    "City": "Buzau",
    "County": "Buzau",
    "Latitude": 45.1371109,
    "Longitude": 26.8171122,
    "Sold": 580405,
    "Group": "MEDIUM",
    "Agent": 13,
    "Visits": "weekly"
  },
  {
    "": 261,
    "City": "Fagaras",
    "County": "Brasov",
    "Latitude": 45.8416403,
    "Longitude": 24.9730954,
    "Sold": 890669,
    "Group": "MEDIUM",
    "Agent": 6,
    "Visits": "bi-weekly"
  },
  {
    "": 262,
    "City": "Ovidiu",
    "County": "Constanta",
    "Latitude": 44.2576259,
    "Longitude": 28.558611,
    "Sold": 548591,
    "Group": "MEDIUM",
    "Agent": 14,
    "Visits": "bi-weekly"
  },
  {
    "": 263,
    "City": "Bacau",
    "County": "Bacau",
    "Latitude": 46.5670437,
    "Longitude": 26.9145748,
    "Sold": 2006226,
    "Group": "LARGE",
    "Agent": 8,
    "Visits": "twice-a-week"
  },
  {
    "": 264,
    "City": "Homocea",
    "County": "Vrancea",
    "Latitude": 46.1346892,
    "Longitude": 27.2425619,
    "Sold": 319747,
    "Group": "SMALL",
    "Agent": 3,
    "Visits": "weekly"
  },
  {
    "": 265,
    "City": "Lupeni",
    "County": "Hunedoara",
    "Latitude": 45.3569989,
    "Longitude": 23.2132218,
    "Sold": 403441,
    "Group": "MEDIUM",
    "Agent": 4,
    "Visits": "bi-weekly"
  },
  {
    "": 266,
    "City": "Husi",
    "County": "Vaslui",
    "Latitude": 46.6758644,
    "Longitude": 28.05899,
    "Sold": 344310,
    "Group": "SMALL",
    "Agent": 19,
    "Visits": "twice-a-week"
  },
  {
    "": 267,
    "City": "Cotenesti",
    "County": "Arges",
    "Latitude": 45.23358,
    "Longitude": 25.1844379,
    "Sold": 925742,
    "Group": "MEDIUM",
    "Agent": 10,
    "Visits": "twice-a-week"
  },
  {
    "": 268,
    "City": "Huedin",
    "County": "Cluj",
    "Latitude": 46.8623427,
    "Longitude": 23.0218215,
    "Sold": 208203,
    "Group": "SMALL",
    "Agent": 7,
    "Visits": "twice-a-week"
  },
  {
    "": 269,
    "City": "Gugesti",
    "County": "Vrancea",
    "Latitude": 45.5698771,
    "Longitude": 27.1319694,
    "Sold": 530272,
    "Group": "MEDIUM",
    "Agent": 3,
    "Visits": "weekly"
  },
  {
    "": 270,
    "City": "Priboieni",
    "County": "Arges",
    "Latitude": 44.8747392,
    "Longitude": 25.0801048,
    "Sold": 662164,
    "Group": "MEDIUM",
    "Agent": 10,
    "Visits": "weekly"
  },
  {
    "": 271,
    "City": "Bozovici",
    "County": "Caras-Severin",
    "Latitude": 45.0012349,
    "Longitude": 21.9535783,
    "Sold": 445136,
    "Group": "MEDIUM",
    "Agent": 16,
    "Visits": "weekly"
  },
  {
    "": 272,
    "City": "Turda",
    "County": "Cluj",
    "Latitude": 46.564676,
    "Longitude": 23.7971063,
    "Sold": 1669436,
    "Group": "LARGE",
    "Agent": 0,
    "Visits": "twice-a-week"
  },
  {
    "": 273,
    "City": "Mangalia",
    "County": "Constanta",
    "Latitude": 43.8152436,
    "Longitude": 28.5741496,
    "Sold": 1297197,
    "Group": "LARGE",
    "Agent": 14,
    "Visits": "twice-a-week"
  },
  {
    "": 274,
    "City": "Rabagani",
    "County": "Bihor",
    "Latitude": 46.74629,
    "Longitude": 22.2452338,
    "Sold": 1459568,
    "Group": "LARGE",
    "Agent": 11,
    "Visits": "bi-weekly"
  },
  {
    "": 275,
    "City": "Tautii-Magheraus",
    "County": "Maramures",
    "Latitude": 47.6656888,
    "Longitude": 23.4596529,
    "Sold": 358790,
    "Group": "SMALL",
    "Agent": 12,
    "Visits": "bi-weekly"
  },
  {
    "": 276,
    "City": "Intorsura Buzaului",
    "County": "Covasna",
    "Latitude": 45.6640966,
    "Longitude": 26.0149491,
    "Sold": 1364297,
    "Group": "LARGE",
    "Agent": 1,
    "Visits": "weekly"
  },
  {
    "": 277,
    "City": "Floresti",
    "County": "Cluj",
    "Latitude": 46.7312657,
    "Longitude": 23.4783294,
    "Sold": 1048000,
    "Group": "LARGE",
    "Agent": 0,
    "Visits": "weekly"
  },
  {
    "": 278,
    "City": "Busag",
    "County": "Maramures",
    "Latitude": 47.659141,
    "Longitude": 23.4237293,
    "Sold": 1185702,
    "Group": "LARGE",
    "Agent": 12,
    "Visits": "bi-weekly"
  },
  {
    "": 279,
    "City": "Iernut",
    "County": "Mures",
    "Latitude": 46.4507604,
    "Longitude": 24.2290151,
    "Sold": 1314719,
    "Group": "LARGE",
    "Agent": 0,
    "Visits": "weekly"
  },
  {
    "": 280,
    "City": "Viseu de Sus",
    "County": "Maramures",
    "Latitude": 47.7150521,
    "Longitude": 24.4396734,
    "Sold": 345618,
    "Group": "SMALL",
    "Agent": 15,
    "Visits": "bi-weekly"
  },
  {
    "": 281,
    "City": "Poiana Marului",
    "County": "Brasov",
    "Latitude": 45.6049511,
    "Longitude": 25.3075907,
    "Sold": 587841,
    "Group": "MEDIUM",
    "Agent": 1,
    "Visits": "bi-weekly"
  },
  {
    "": 282,
    "City": "Reghin",
    "County": "Mures",
    "Latitude": 46.7710931,
    "Longitude": 24.700762,
    "Sold": 1231298,
    "Group": "LARGE",
    "Agent": 15,
    "Visits": "bi-weekly"
  },
  {
    "": 283,
    "City": "Praid",
    "County": "Harghita",
    "Latitude": 46.5553429,
    "Longitude": 25.1272723,
    "Sold": 527809,
    "Group": "MEDIUM",
    "Agent": 6,
    "Visits": "twice-a-week"
  },
  {
    "": 284,
    "City": "Caracal",
    "County": "Olt",
    "Latitude": 44.1157446,
    "Longitude": 24.3424754,
    "Sold": 1556664,
    "Group": "LARGE",
    "Agent": 17,
    "Visits": "weekly"
  },
  {
    "": 285,
    "City": "Rogoz",
    "County": "Maramures",
    "Latitude": 47.4688357,
    "Longitude": 23.9322483,
    "Sold": 1076566,
    "Group": "LARGE",
    "Agent": 12,
    "Visits": "twice-a-week"
  },
  {
    "": 286,
    "City": "Intorsura Buzaului",
    "County": "Covasna",
    "Latitude": 45.6640966,
    "Longitude": 26.0149491,
    "Sold": 777148,
    "Group": "MEDIUM",
    "Agent": 1,
    "Visits": "weekly"
  },
  {
    "": 287,
    "City": "Peretu",
    "County": "Teleorman",
    "Latitude": 44.0441616,
    "Longitude": 25.0860775,
    "Sold": 910253,
    "Group": "MEDIUM",
    "Agent": 9,
    "Visits": "twice-a-week"
  },
  {
    "": 288,
    "City": "Breaza",
    "County": "Prahova",
    "Latitude": 45.187222,
    "Longitude": 25.662222,
    "Sold": 285032,
    "Group": "SMALL",
    "Agent": 1,
    "Visits": "weekly"
  },
  {
    "": 289,
    "City": "Sovata",
    "County": "Mures",
    "Latitude": 46.5990794,
    "Longitude": 25.0774363,
    "Sold": 625028,
    "Group": "MEDIUM",
    "Agent": 6,
    "Visits": "weekly"
  },
  {
    "": 290,
    "City": "Horodnic de Sus",
    "County": "Suceava",
    "Latitude": 47.8475154,
    "Longitude": 25.7765467,
    "Sold": 1350142,
    "Group": "LARGE",
    "Agent": 5,
    "Visits": "bi-weekly"
  },
  {
    "": 291,
    "City": "Campulung",
    "County": "Arges",
    "Latitude": 45.270605,
    "Longitude": 25.0531038,
    "Sold": 1449010,
    "Group": "LARGE",
    "Agent": 10,
    "Visits": "twice-a-week"
  },
  {
    "": 292,
    "City": "Resita",
    "County": "Caras-Severin",
    "Latitude": 45.3049703,
    "Longitude": 21.8821033,
    "Sold": 2148112,
    "Group": "LARGE",
    "Agent": 16,
    "Visits": "twice-a-week"
  },
  {
    "": 293,
    "City": "Pipirig",
    "County": "Neamt",
    "Latitude": 47.2396133,
    "Longitude": 26.0678092,
    "Sold": 763037,
    "Group": "MEDIUM",
    "Agent": 5,
    "Visits": "weekly"
  },
  {
    "": 294,
    "City": "Ivesti",
    "County": "Galati",
    "Latitude": 45.6897612,
    "Longitude": 27.5354375,
    "Sold": 470723,
    "Group": "MEDIUM",
    "Agent": 3,
    "Visits": "twice-a-week"
  },
  {
    "": 295,
    "City": "Arinis",
    "County": "Maramures",
    "Latitude": 47.5022794,
    "Longitude": 23.2237172,
    "Sold": 542883,
    "Group": "MEDIUM",
    "Agent": 12,
    "Visits": "weekly"
  },
  {
    "": 296,
    "City": "Batanii Mari",
    "County": "Covasna",
    "Latitude": 46.0900927,
    "Longitude": 25.6977467,
    "Sold": 290979,
    "Group": "SMALL",
    "Agent": 6,
    "Visits": "weekly"
  },
  {
    "": 297,
    "City": "Bucuresti",
    "County": "Bucuresti",
    "Latitude": 44.4267674,
    "Longitude": 26.1025384,
    "Sold": 761072,
    "Group": "MEDIUM",
    "Agent": 13,
    "Visits": "bi-weekly"
  },
  {
    "": 298,
    "City": "Petrova",
    "County": "Maramures",
    "Latitude": 47.8278652,
    "Longitude": 24.2116255,
    "Sold": 991366,
    "Group": "MEDIUM",
    "Agent": 15,
    "Visits": "weekly"
  },
  {
    "": 299,
    "City": "Victoria",
    "County": "Brasov",
    "Latitude": 45.7306587,
    "Longitude": 24.7009227,
    "Sold": 782878,
    "Group": "MEDIUM",
    "Agent": 6,
    "Visits": "twice-a-week"
  },
  {
    "": 300,
    "City": "Beclean",
    "County": "Bistrita-Nasaud",
    "Latitude": 47.1800681,
    "Longitude": 24.1704031,
    "Sold": 1348173,
    "Group": "LARGE",
    "Agent": 15,
    "Visits": "bi-weekly"
  },
  {
    "": 301,
    "City": "Focsani",
    "County": "Vrancea",
    "Latitude": 45.6964745,
    "Longitude": 27.184043,
    "Sold": 682892,
    "Group": "MEDIUM",
    "Agent": 3,
    "Visits": "weekly"
  },
  {
    "": 302,
    "City": "Calimanesti",
    "County": "Valcea",
    "Latitude": 45.239101,
    "Longitude": 24.3398608,
    "Sold": 626274,
    "Group": "MEDIUM",
    "Agent": 10,
    "Visits": "bi-weekly"
  },
  {
    "": 303,
    "City": "Dobreni",
    "County": "Giurgiu",
    "Latitude": 44.253387,
    "Longitude": 26.2082339,
    "Sold": 509365,
    "Group": "MEDIUM",
    "Agent": 13,
    "Visits": "bi-weekly"
  },
  {
    "": 304,
    "City": "Dragodana",
    "County": "Dambovita",
    "Latitude": 44.7482909,
    "Longitude": 25.3936632,
    "Sold": 16317,
    "Group": "SMALL",
    "Agent": 10,
    "Visits": "weekly"
  },
  {
    "": 305,
    "City": "Baia Mare",
    "County": "Maramures",
    "Latitude": 47.6567387,
    "Longitude": 23.5849881,
    "Sold": 16116,
    "Group": "SMALL",
    "Agent": 12,
    "Visits": "twice-a-week"
  },
  {
    "": 306,
    "City": "Paclisa",
    "County": "Hunedoara",
    "Latitude": 45.5630744,
    "Longitude": 22.8801602,
    "Sold": 210421,
    "Group": "SMALL",
    "Agent": 4,
    "Visits": "weekly"
  },
  {
    "": 307,
    "City": "Giroc",
    "County": "Timis",
    "Latitude": 45.701755,
    "Longitude": 21.2346449,
    "Sold": 1450714,
    "Group": "LARGE",
    "Agent": 2,
    "Visits": "weekly"
  },
  {
    "": 308,
    "City": "Recas",
    "County": "Timis",
    "Latitude": 45.8011607,
    "Longitude": 21.5119138,
    "Sold": 1247630,
    "Group": "LARGE",
    "Agent": 2,
    "Visits": "weekly"
  },
  {
    "": 309,
    "City": "Oradea",
    "County": "Bihor",
    "Latitude": 47.0465005,
    "Longitude": 21.9189438,
    "Sold": 1487482,
    "Group": "LARGE",
    "Agent": 11,
    "Visits": "weekly"
  },
  {
    "": 310,
    "City": "Roman",
    "County": "Neamt",
    "Latitude": 46.9333781,
    "Longitude": 26.9265451,
    "Sold": 133894,
    "Group": "SMALL",
    "Agent": 8,
    "Visits": "weekly"
  },
  {
    "": 311,
    "City": "Calinesti",
    "County": "Maramures",
    "Latitude": 47.7836678,
    "Longitude": 23.9693546,
    "Sold": 184312,
    "Group": "SMALL",
    "Agent": 12,
    "Visits": "twice-a-week"
  },
  {
    "": 312,
    "City": "Simeria",
    "County": "Hunedoara",
    "Latitude": 45.8555725,
    "Longitude": 23.0120864,
    "Sold": 469971,
    "Group": "MEDIUM",
    "Agent": 4,
    "Visits": "bi-weekly"
  },
  {
    "": 313,
    "City": "Topoloveni",
    "County": "Arges",
    "Latitude": 44.8105516,
    "Longitude": 25.0770243,
    "Sold": 887909,
    "Group": "MEDIUM",
    "Agent": 10,
    "Visits": "twice-a-week"
  },
  {
    "": 314,
    "City": "Vulcan",
    "County": "Brasov",
    "Latitude": 45.6348088,
    "Longitude": 25.4181031,
    "Sold": 1049345,
    "Group": "LARGE",
    "Agent": 1,
    "Visits": "weekly"
  },
  {
    "": 315,
    "City": "Dridu",
    "County": "Ialomita",
    "Latitude": 44.6869604,
    "Longitude": 26.4611572,
    "Sold": 1323986,
    "Group": "LARGE",
    "Agent": 13,
    "Visits": "bi-weekly"
  },
  {
    "": 316,
    "City": "Poiana Ilvei",
    "County": "Bistrita-Nasaud",
    "Latitude": 47.3558143,
    "Longitude": 24.7451705,
    "Sold": 942139,
    "Group": "MEDIUM",
    "Agent": 15,
    "Visits": "bi-weekly"
  },
  {
    "": 317,
    "City": "Simleu Silvaniei",
    "County": "Salaj",
    "Latitude": 47.2260727,
    "Longitude": 22.8037864,
    "Sold": 1671334,
    "Group": "LARGE",
    "Agent": 7,
    "Visits": "bi-weekly"
  },
  {
    "": 318,
    "City": "Borsa",
    "County": "Maramures",
    "Latitude": 47.6537683,
    "Longitude": 24.6631517,
    "Sold": 688697,
    "Group": "MEDIUM",
    "Agent": 15,
    "Visits": "twice-a-week"
  },
  {
    "": 319,
    "City": "Izbiceni",
    "County": "Olt",
    "Latitude": 43.8229185,
    "Longitude": 24.6625464,
    "Sold": 343460,
    "Group": "SMALL",
    "Agent": 17,
    "Visits": "twice-a-week"
  },
  {
    "": 320,
    "City": "Sighisoara",
    "County": "Mures",
    "Latitude": 46.2197025,
    "Longitude": 24.7963878,
    "Sold": 40609,
    "Group": "SMALL",
    "Agent": 6,
    "Visits": "twice-a-week"
  },
  {
    "": 321,
    "City": "Rabagani",
    "County": "Bihor",
    "Latitude": 46.74629,
    "Longitude": 22.2452338,
    "Sold": 355514,
    "Group": "SMALL",
    "Agent": 11,
    "Visits": "weekly"
  },
  {
    "": 322,
    "City": "Sarata-Monteoru",
    "County": "Buzau",
    "Latitude": 45.1475653,
    "Longitude": 26.6409383,
    "Sold": 921058,
    "Group": "MEDIUM",
    "Agent": 13,
    "Visits": "twice-a-week"
  },
  {
    "": 323,
    "City": "Vintu de Jos",
    "County": "Alba",
    "Latitude": 45.9920306,
    "Longitude": 23.4864679,
    "Sold": 355639,
    "Group": "SMALL",
    "Agent": 4,
    "Visits": "twice-a-week"
  },
  {
    "": 324,
    "City": "Toplita",
    "County": "Harghita",
    "Latitude": 46.9260303,
    "Longitude": 25.3534041,
    "Sold": 1268371,
    "Group": "LARGE",
    "Agent": 6,
    "Visits": "twice-a-week"
  },
  {
    "": 325,
    "City": "Targoviste",
    "County": "Dambovita",
    "Latitude": 44.9118218,
    "Longitude": 25.4558274,
    "Sold": 1506163,
    "Group": "LARGE",
    "Agent": 10,
    "Visits": "bi-weekly"
  },
  {
    "": 326,
    "City": "Dumbravioara",
    "County": "Mures",
    "Latitude": 46.6381523,
    "Longitude": 24.6367203,
    "Sold": 384793,
    "Group": "SMALL",
    "Agent": 0,
    "Visits": "bi-weekly"
  },
  {
    "": 327,
    "City": "Fieni",
    "County": "Dambovita",
    "Latitude": 45.1279095,
    "Longitude": 25.4152063,
    "Sold": 1232026,
    "Group": "LARGE",
    "Agent": 10,
    "Visits": "weekly"
  },
  {
    "": 328,
    "City": "Odorheiu Secuiesc",
    "County": "Harghita",
    "Latitude": 46.3049996,
    "Longitude": 25.2926479,
    "Sold": 319802,
    "Group": "SMALL",
    "Agent": 6,
    "Visits": "bi-weekly"
  },
  {
    "": 329,
    "City": "Turnu Magurele",
    "County": "Teleorman",
    "Latitude": 43.7517061,
    "Longitude": 24.8773935,
    "Sold": 1000749,
    "Group": "LARGE",
    "Agent": 9,
    "Visits": "weekly"
  },
  {
    "": 330,
    "City": "Sarmasu",
    "County": "Mures",
    "Latitude": 46.7512385,
    "Longitude": 24.165584,
    "Sold": 1412435,
    "Group": "LARGE",
    "Agent": 0,
    "Visits": "bi-weekly"
  },
  {
    "": 331,
    "City": "Cheresig",
    "County": "Bihor",
    "Latitude": 47.0326903,
    "Longitude": 21.6750289,
    "Sold": 832428,
    "Group": "MEDIUM",
    "Agent": 11,
    "Visits": "weekly"
  },
  {
    "": 332,
    "City": "Filiasi",
    "County": "Dolj",
    "Latitude": 44.554523,
    "Longitude": 23.5200088,
    "Sold": 160155,
    "Group": "SMALL",
    "Agent": 18,
    "Visits": "weekly"
  },
  {
    "": 333,
    "City": "Bozovici",
    "County": "Caras-Severin",
    "Latitude": 45.0012349,
    "Longitude": 21.9535783,
    "Sold": 507284,
    "Group": "MEDIUM",
    "Agent": 16,
    "Visits": "bi-weekly"
  },
  {
    "": 334,
    "City": "Busag",
    "County": "Maramures",
    "Latitude": 47.659141,
    "Longitude": 23.4237293,
    "Sold": 669177,
    "Group": "MEDIUM",
    "Agent": 12,
    "Visits": "bi-weekly"
  },
  {
    "": 335,
    "City": "Dridu",
    "County": "Ialomita",
    "Latitude": 44.6869604,
    "Longitude": 26.4611572,
    "Sold": 708877,
    "Group": "MEDIUM",
    "Agent": 13,
    "Visits": "twice-a-week"
  },
  {
    "": 336,
    "City": "Dorohoi",
    "County": "Botosani",
    "Latitude": 47.9549207,
    "Longitude": 26.4012087,
    "Sold": 698551,
    "Group": "MEDIUM",
    "Agent": 5,
    "Visits": "twice-a-week"
  },
  {
    "": 337,
    "City": "Brazii de Jos",
    "County": "Prahova",
    "Latitude": 44.8507992,
    "Longitude": 26.0333732,
    "Sold": 745058,
    "Group": "MEDIUM",
    "Agent": 13,
    "Visits": "weekly"
  },
  {
    "": 338,
    "City": "Alesd",
    "County": "Bihor",
    "Latitude": 47.0590191,
    "Longitude": 22.3980649,
    "Sold": 906740,
    "Group": "MEDIUM",
    "Agent": 11,
    "Visits": "weekly"
  },
  {
    "": 339,
    "City": "Simian",
    "County": "Mehedinti",
    "Latitude": 44.6323199,
    "Longitude": 22.7515121,
    "Sold": 195713,
    "Group": "SMALL",
    "Agent": 16,
    "Visits": "weekly"
  },
  {
    "": 340,
    "City": "Curtea de Arges",
    "County": "Arges",
    "Latitude": 45.1405966,
    "Longitude": 24.6685182,
    "Sold": 678990,
    "Group": "MEDIUM",
    "Agent": 10,
    "Visits": "bi-weekly"
  },
  {
    "": 341,
    "City": "Brazii de Jos",
    "County": "Prahova",
    "Latitude": 44.8507992,
    "Longitude": 26.0333732,
    "Sold": 1559130,
    "Group": "LARGE",
    "Agent": 13,
    "Visits": "bi-weekly"
  },
  {
    "": 342,
    "City": "Sfantu Gheorghe",
    "County": "Covasna",
    "Latitude": 45.8609375,
    "Longitude": 25.7885796,
    "Sold": 607677,
    "Group": "MEDIUM",
    "Agent": 1,
    "Visits": "twice-a-week"
  },
  {
    "": 343,
    "City": "Targu Jiu",
    "County": "Gorj",
    "Latitude": 45.0314279,
    "Longitude": 23.2689393,
    "Sold": 578081,
    "Group": "MEDIUM",
    "Agent": 18,
    "Visits": "bi-weekly"
  },
  {
    "": 344,
    "City": "Stefanesti",
    "County": "Arges",
    "Latitude": 44.733333,
    "Longitude": 24.6500001,
    "Sold": 1339098,
    "Group": "LARGE",
    "Agent": 10,
    "Visits": "weekly"
  },
  {
    "": 345,
    "City": "Ciolpani",
    "County": "Ilfov",
    "Latitude": 44.72724,
    "Longitude": 26.10957,
    "Sold": 479592,
    "Group": "MEDIUM",
    "Agent": 13,
    "Visits": "twice-a-week"
  },
  {
    "": 346,
    "City": "Viseu de Sus",
    "County": "Maramures",
    "Latitude": 47.7150521,
    "Longitude": 24.4396734,
    "Sold": 1390689,
    "Group": "LARGE",
    "Agent": 15,
    "Visits": "bi-weekly"
  },
  {
    "": 347,
    "City": "Bals",
    "County": "Olt",
    "Latitude": 44.3533537,
    "Longitude": 24.0956725,
    "Sold": 484048,
    "Group": "MEDIUM",
    "Agent": 17,
    "Visits": "weekly"
  },
  {
    "": 348,
    "City": "Beius",
    "County": "Bihor",
    "Latitude": 46.6674534,
    "Longitude": 22.3575717,
    "Sold": 881964,
    "Group": "MEDIUM",
    "Agent": 11,
    "Visits": "bi-weekly"
  },
  {
    "": 349,
    "City": "Hanu Conachi",
    "County": "Galati",
    "Latitude": 45.5803451,
    "Longitude": 27.6028377,
    "Sold": 848160,
    "Group": "MEDIUM",
    "Agent": 3,
    "Visits": "bi-weekly"
  },
  {
    "": 350,
    "City": "Azuga",
    "County": "Prahova",
    "Latitude": 45.4450965,
    "Longitude": 25.5700368,
    "Sold": 1271234,
    "Group": "LARGE",
    "Agent": 1,
    "Visits": "bi-weekly"
  },
  {
    "": 351,
    "City": "Busteni",
    "County": "Prahova",
    "Latitude": 45.4097148,
    "Longitude": 25.5342236,
    "Sold": 666202,
    "Group": "MEDIUM",
    "Agent": 1,
    "Visits": "weekly"
  },
  {
    "": 352,
    "City": "Mastacan (Borlesti)",
    "County": "Neamt",
    "Latitude": 46.7968134,
    "Longitude": 26.4954639,
    "Sold": 460987,
    "Group": "MEDIUM",
    "Agent": 8,
    "Visits": "weekly"
  },
  {
    "": 353,
    "City": "Bradet",
    "County": "Covasna",
    "Latitude": 45.6546838,
    "Longitude": 25.9887106,
    "Sold": 1448922,
    "Group": "LARGE",
    "Agent": 1,
    "Visits": "bi-weekly"
  },
  {
    "": 354,
    "City": "Targu Neamt",
    "County": "Neamt",
    "Latitude": 47.2097877,
    "Longitude": 26.3757306,
    "Sold": 382086,
    "Group": "SMALL",
    "Agent": 5,
    "Visits": "weekly"
  },
  {
    "": 355,
    "City": "Catetu",
    "County": "Valcea",
    "Latitude": 44.8365671,
    "Longitude": 23.9550864,
    "Sold": 810167,
    "Group": "MEDIUM",
    "Agent": 18,
    "Visits": "bi-weekly"
  },
  {
    "": 356,
    "City": "Martinis",
    "County": "Harghita",
    "Latitude": 46.2821667,
    "Longitude": 25.4117826,
    "Sold": 126037,
    "Group": "SMALL",
    "Agent": 6,
    "Visits": "twice-a-week"
  },
  {
    "": 357,
    "City": "Sascut",
    "County": "Bacau",
    "Latitude": 46.1960057,
    "Longitude": 27.093757,
    "Sold": 419213,
    "Group": "MEDIUM",
    "Agent": 8,
    "Visits": "weekly"
  },
  {
    "": 358,
    "City": "Unguras",
    "County": "Cluj",
    "Latitude": 47.1081,
    "Longitude": 24.0571,
    "Sold": 1805628,
    "Group": "LARGE",
    "Agent": 15,
    "Visits": "bi-weekly"
  },
  {
    "": 359,
    "City": "Topoloveni",
    "County": "Arges",
    "Latitude": 44.8105516,
    "Longitude": 25.0770243,
    "Sold": 777702,
    "Group": "MEDIUM",
    "Agent": 10,
    "Visits": "bi-weekly"
  },
  {
    "": 360,
    "City": "Tulcea",
    "County": "Tulcea",
    "Latitude": 45.1716165,
    "Longitude": 28.7914439,
    "Sold": 897534,
    "Group": "MEDIUM",
    "Agent": 14,
    "Visits": "bi-weekly"
  },
  {
    "": 361,
    "City": "Sona",
    "County": "Alba",
    "Latitude": 46.2172769,
    "Longitude": 24.0147622,
    "Sold": 90781,
    "Group": "SMALL",
    "Agent": 0,
    "Visits": "twice-a-week"
  },
  {
    "": 362,
    "City": "Gataia",
    "County": "Timis",
    "Latitude": 45.4265209,
    "Longitude": 21.4309592,
    "Sold": 435477,
    "Group": "MEDIUM",
    "Agent": 2,
    "Visits": "weekly"
  },
  {
    "": 363,
    "City": "Cernat",
    "County": "Covasna",
    "Latitude": 45.9570931,
    "Longitude": 26.0311933,
    "Sold": 898278,
    "Group": "MEDIUM",
    "Agent": 1,
    "Visits": "bi-weekly"
  },
  {
    "": 364,
    "City": "Husi",
    "County": "Vaslui",
    "Latitude": 46.6758644,
    "Longitude": 28.05899,
    "Sold": 977378,
    "Group": "MEDIUM",
    "Agent": 19,
    "Visits": "bi-weekly"
  },
  {
    "": 365,
    "City": "Bozovici",
    "County": "Caras-Severin",
    "Latitude": 45.0012349,
    "Longitude": 21.9535783,
    "Sold": 1108443,
    "Group": "LARGE",
    "Agent": 16,
    "Visits": "bi-weekly"
  },
  {
    "": 366,
    "City": "Marghita",
    "County": "Bihor",
    "Latitude": 47.3479194,
    "Longitude": 22.3397566,
    "Sold": 804313,
    "Group": "MEDIUM",
    "Agent": 7,
    "Visits": "weekly"
  },
  {
    "": 367,
    "City": "Drobeta-Turnu Severin",
    "County": "Mehedinti",
    "Latitude": 44.6369227,
    "Longitude": 22.6597342,
    "Sold": 1063502,
    "Group": "LARGE",
    "Agent": 16,
    "Visits": "twice-a-week"
  },
  {
    "": 368,
    "City": "Carta",
    "County": "Harghita",
    "Latitude": 46.5305691,
    "Longitude": 25.7615353,
    "Sold": 1026890,
    "Group": "LARGE",
    "Agent": 6,
    "Visits": "twice-a-week"
  },
  {
    "": 369,
    "City": "Calinesti",
    "County": "Maramures",
    "Latitude": 47.7836678,
    "Longitude": 23.9693546,
    "Sold": 114870,
    "Group": "SMALL",
    "Agent": 12,
    "Visits": "bi-weekly"
  },
  {
    "": 370,
    "City": "Berevoesti",
    "County": "Arges",
    "Latitude": 45.2267717,
    "Longitude": 24.9362258,
    "Sold": 818502,
    "Group": "MEDIUM",
    "Agent": 10,
    "Visits": "bi-weekly"
  },
  {
    "": 371,
    "City": "Geamana",
    "County": "Arges",
    "Latitude": 44.828632,
    "Longitude": 24.8934015,
    "Sold": 1183951,
    "Group": "LARGE",
    "Agent": 10,
    "Visits": "weekly"
  },
  {
    "": 372,
    "City": "Motru",
    "County": "Gorj",
    "Latitude": 44.8027376,
    "Longitude": 22.9728558,
    "Sold": 1094939,
    "Group": "LARGE",
    "Agent": 18,
    "Visits": "bi-weekly"
  },
  {
    "": 373,
    "City": "Galati",
    "County": "Galati",
    "Latitude": 45.4353208,
    "Longitude": 28.0079945,
    "Sold": 618070,
    "Group": "MEDIUM",
    "Agent": 3,
    "Visits": "twice-a-week"
  },
  {
    "": 374,
    "City": "Filiasi",
    "County": "Dolj",
    "Latitude": 44.554523,
    "Longitude": 23.5200088,
    "Sold": 397186,
    "Group": "SMALL",
    "Agent": 18,
    "Visits": "weekly"
  },
  {
    "": 375,
    "City": "Sascut",
    "County": "Bacau",
    "Latitude": 46.1960057,
    "Longitude": 27.093757,
    "Sold": 240844,
    "Group": "SMALL",
    "Agent": 8,
    "Visits": "weekly"
  },
  {
    "": 376,
    "City": "Rus",
    "County": "Maramures",
    "Latitude": 47.6127272,
    "Longitude": 23.673581,
    "Sold": 734472,
    "Group": "MEDIUM",
    "Agent": 12,
    "Visits": "bi-weekly"
  },
  {
    "": 377,
    "City": "Roman",
    "County": "Neamt",
    "Latitude": 46.9333781,
    "Longitude": 26.9265451,
    "Sold": 1366539,
    "Group": "LARGE",
    "Agent": 8,
    "Visits": "twice-a-week"
  },
  {
    "": 378,
    "City": "Beclean",
    "County": "Bistrita-Nasaud",
    "Latitude": 47.1800681,
    "Longitude": 24.1704031,
    "Sold": 175902,
    "Group": "SMALL",
    "Agent": 15,
    "Visits": "weekly"
  },
  {
    "": 379,
    "City": "Cotenesti",
    "County": "Arges",
    "Latitude": 45.23358,
    "Longitude": 25.1844379,
    "Sold": 470054,
    "Group": "MEDIUM",
    "Agent": 10,
    "Visits": "weekly"
  },
  {
    "": 380,
    "City": "Cisnadie",
    "County": "Sibiu",
    "Latitude": 45.7139464,
    "Longitude": 24.1548523,
    "Sold": 230098,
    "Group": "SMALL",
    "Agent": 0,
    "Visits": "bi-weekly"
  },
  {
    "": 381,
    "City": "Ineu",
    "County": "Arad",
    "Latitude": 46.4310262,
    "Longitude": 21.840539,
    "Sold": 1192478,
    "Group": "LARGE",
    "Agent": 11,
    "Visits": "twice-a-week"
  },
  {
    "": 382,
    "City": "Targu Jiu",
    "County": "Gorj",
    "Latitude": 45.0314279,
    "Longitude": 23.2689393,
    "Sold": 522845,
    "Group": "MEDIUM",
    "Agent": 18,
    "Visits": "twice-a-week"
  },
  {
    "": 383,
    "City": "Rovinari",
    "County": "Gorj",
    "Latitude": 44.9000027,
    "Longitude": 23.1543463,
    "Sold": 564681,
    "Group": "MEDIUM",
    "Agent": 18,
    "Visits": "weekly"
  },
  {
    "": 384,
    "City": "Roman",
    "County": "Neamt",
    "Latitude": 46.9333781,
    "Longitude": 26.9265451,
    "Sold": 691525,
    "Group": "MEDIUM",
    "Agent": 8,
    "Visits": "twice-a-week"
  },
  {
    "": 385,
    "City": "Bixad",
    "County": "Satu Mare",
    "Latitude": 47.9497957,
    "Longitude": 23.3875848,
    "Sold": 1022696,
    "Group": "LARGE",
    "Agent": 12,
    "Visits": "bi-weekly"
  },
  {
    "": 386,
    "City": "Doanca",
    "County": "Olt",
    "Latitude": 43.8465727,
    "Longitude": 24.6487677,
    "Sold": 603805,
    "Group": "MEDIUM",
    "Agent": 17,
    "Visits": "bi-weekly"
  },
  {
    "": 387,
    "City": "Daia Romana",
    "County": "Alba",
    "Latitude": 46.006639,
    "Longitude": 23.6675773,
    "Sold": 723071,
    "Group": "MEDIUM",
    "Agent": 0,
    "Visits": "weekly"
  },
  {
    "": 388,
    "City": "Calaparu",
    "County": "Gorj",
    "Latitude": 44.6828706,
    "Longitude": 23.324964,
    "Sold": 1071655,
    "Group": "LARGE",
    "Agent": 18,
    "Visits": "weekly"
  },
  {
    "": 389,
    "City": "Fieni",
    "County": "Dambovita",
    "Latitude": 45.1279095,
    "Longitude": 25.4152063,
    "Sold": 1019521,
    "Group": "LARGE",
    "Agent": 10,
    "Visits": "twice-a-week"
  },
  {
    "": 390,
    "City": "Selimbar",
    "County": "Sibiu",
    "Latitude": 45.7684434,
    "Longitude": 24.1804581,
    "Sold": 690229,
    "Group": "MEDIUM",
    "Agent": 0,
    "Visits": "bi-weekly"
  },
  {
    "": 391,
    "City": "Slatina",
    "County": "Olt",
    "Latitude": 44.4301677,
    "Longitude": 24.3716904,
    "Sold": 257981,
    "Group": "SMALL",
    "Agent": 17,
    "Visits": "twice-a-week"
  },
  {
    "": 392,
    "City": "Sannicolau Mare",
    "County": "Timis",
    "Latitude": 46.0593374,
    "Longitude": 20.622454,
    "Sold": 975890,
    "Group": "MEDIUM",
    "Agent": 2,
    "Visits": "twice-a-week"
  },
  {
    "": 393,
    "City": "Racari",
    "County": "Dambovita",
    "Latitude": 44.6240121,
    "Longitude": 25.7428095,
    "Sold": 989617,
    "Group": "MEDIUM",
    "Agent": 13,
    "Visits": "weekly"
  },
  {
    "": 394,
    "City": "Campia Turzii",
    "County": "Cluj",
    "Latitude": 46.5586485,
    "Longitude": 23.8706676,
    "Sold": 564983,
    "Group": "MEDIUM",
    "Agent": 0,
    "Visits": "bi-weekly"
  },
  {
    "": 395,
    "City": "Seica Mare",
    "County": "Sibiu",
    "Latitude": 46.0239949,
    "Longitude": 24.1582482,
    "Sold": 691634,
    "Group": "MEDIUM",
    "Agent": 0,
    "Visits": "bi-weekly"
  },
  {
    "": 396,
    "City": "Targoviste",
    "County": "Dambovita",
    "Latitude": 44.9118218,
    "Longitude": 25.4558274,
    "Sold": 334921,
    "Group": "SMALL",
    "Agent": 10,
    "Visits": "twice-a-week"
  },
  {
    "": 397,
    "City": "Simleu Silvaniei",
    "County": "Salaj",
    "Latitude": 47.2260727,
    "Longitude": 22.8037864,
    "Sold": 710705,
    "Group": "MEDIUM",
    "Agent": 7,
    "Visits": "bi-weekly"
  },
  {
    "": 398,
    "City": "Bibesti",
    "County": "Gorj",
    "Latitude": 44.7815366,
    "Longitude": 23.4907078,
    "Sold": 24785,
    "Group": "SMALL",
    "Agent": 18,
    "Visits": "bi-weekly"
  },
  {
    "": 399,
    "City": "Horia",
    "County": "Neamt",
    "Latitude": 46.90631,
    "Longitude": 26.9200561,
    "Sold": 1008659,
    "Group": "LARGE",
    "Agent": 8,
    "Visits": "twice-a-week"
  }
]